location_stand,banking,bike_stands,available_bike_stands,available_bikes,longitude,latitude,holiday,workingday,weather,Season,temp,humidity,windspeed,casual,registered,count,date_time
Aungier street outside DIT,TRUE,25,9,16,-6.26622498,53.33866101,0,1,2,1,25.42,73,7.0015,51,435,486,01-01-2020 00:00
Capel street outside Dublin College of Advanced Studies,FALSE,29,29,0,-6.269459724,53.35013744,0,1,2,1,25.42,73,8.9981,32,308,340,01-01-2020 01:00
Kings Inn Street,FALSE,30,13,17,-6.268934011,53.35202907,0,1,3,1,25.42,83,15.0013,28,205,233,01-01-2020 02:00
top of Parnell street,FALSE,20,10,10,-6.257198006,53.35419437,0,1,3,1,25.42,83,16.9979,20,109,129,01-01-2020 03:00
"Parnell Street, outside Burger King",FALSE,40,37,3,-6.264808774,53.3508299,0,1,3,1,24.6,94,16.9979,4,66,70,01-01-2020 04:00
Mary street outside Mary Mall,FALSE,30,29,1,-6.267952323,53.348618,0,1,3,1,24.6,94,16.9979,2,11,13,01-01-2020 05:00
Berkeley road outside Flanagans pharmacy,TRUE,29,29,0,-6.269868761,53.35896725,0,1,3,1,24.6,94,12.998,0,5,5,01-01-2020 06:00
Mayor street lower outside AIB,FALSE,30,0,25,-6.24368906,53.34900307,0,1,3,1,24.6,94,12.998,0,4,4,01-01-2020 07:00
George's Dock across the road from KPMG,FALSE,40,32,8,-6.24969855,53.34960348,0,1,2,1,25.42,94,19.0012,0,6,6,01-01-2020 08:00
Suffolk street,FALSE,40,22,18,-6.260666102,53.34371105,0,1,2,1,25.42,94,23.9994,2,5,7,01-01-2020 09:00
,FALSE,40,40,0,-6.261174381,53.3400639,0,1,2,1,26.24,89,22.0028,3,45,48,01-01-2020 10:00
Westmoreland street,TRUE,40,35,5,-6.249374002,53.34383275,0,1,2,1,26.24,89,22.0028,4,163,167,01-01-2020 11:00
Pearce street,FALSE,40,28,12,-6.255238652,53.34522827,0,1,2,1,26.24,89,30.0026,13,343,356,01-01-2020 12:00
"Wolfe Tone Street, outside Alexanders bridal shop",TRUE,40,33,7,-6.267784685,53.34989648,0,1,2,1,27.06,83,36.9974,32,640,672,01-01-2020 13:00
Start of kings inn street,FALSE,30,0,30,-6.268844157,53.3519178,0,1,2,1,27.06,83,39.0007,27,266,293,01-01-2020 14:00
"Jervis street, outside McDonolds.",FALSE,30,0,30,-6.266541481,53.34864922,0,1,3,1,27.88,79,43.0006,30,130,160,01-01-2020 15:00
Camden street lower,FALSE,40,39,1,-6.26539886,53.33448808,0,1,2,1,27.88,79,43.0006,36,115,151,01-01-2020 16:00
High street,FALSE,30,30,0,-6.27489002,53.34357364,0,1,3,1,27.88,83,30.0026,16,72,88,01-01-2020 17:00
"York street, royal college of surgeons",FALSE,20,20,0,-6.263350993,53.33909021,0,1,2,1,28.7,74,39.0007,17,97,114,01-01-2020 18:00
Parnell street,FALSE,20,18,2,-6.268060952,53.34999014,0,1,3,1,24.6,94,31.0009,27,116,143,01-01-2020 19:00
Marlborough street outside eircom and kanoodle,FALSE,30,5,25,-6.259502023,53.35296244,0,1,3,1,24.6,88,16.9979,1,35,36,01-01-2020 20:00
Parnell street outside euro giant,FALSE,22,0,22,-6.266872734,53.35033197,0,1,3,1,24.6,88,19.9995,19,122,141,01-01-2020 21:00
Start of Summer hill,FALSE,38,23,15,-6.256611943,53.35440329,0,1,3,1,24.6,88,12.998,36,302,338,01-01-2020 22:00
"St. Stephens Green, outside oxfam and specsavers",TRUE,40,24,16,-6.26113683,53.34013196,0,1,2,1,24.6,88,11.0014,19,262,281,01-01-2020 23:00
Amiens street under train tracks,FALSE,40,40,0,-6.249542981,53.35221799,0,1,1,,14.76,50,22.0028,34,163,197,02-01-2020 00:00
North circular road outside carolans off licence,FALSE,40,25,15,-6.259003133,53.35921696,0,1,1,,16.4,47,19.9995,66,185,251,02-01-2020 01:00
"Dorset Street Upper, outside Ritzy Rags Shop",FALSE,20,16,4,-6.26837343,53.35274391,0,1,1,,18.04,41,22.0028,48,214,262,02-01-2020 02:00
Foley street,FALSE,30,20,10,-6.252315044,53.35165203,0,1,1,,18.86,38,19.9995,62,237,299,02-01-2020 03:00
Dorset street upper outside techno logic ,FALSE,40,38,2,-6.268642992,53.35275832,0,1,1,,18.86,38,12.998,67,207,274,02-01-2020 04:00
Parnell street outside lomdis,TRUE,20,20,0,-6.261105984,53.35264945,0,1,1,,18.86,36,15.0013,78,278,356,02-01-2020 05:00
Top of Parnell street opposite Londis,TRUE,40,33,7,-6.257088035,53.35410392,0,1,1,,18.86,38,11.0014,57,377,434,02-01-2020 06:00
"St Stephens green Luas, in front of certus",TRUE,40,40,0,-6.261493564,53.33916468,0,1,1,,17.22,44,8.9981,61,593,654,02-01-2020 07:00
Tara street,TRUE,20,1,19,-6.254994571,53.34695679,0,1,1,,17.22,44,7.0015,46,450,496,02-01-2020 08:00
Mayor street upper beside the point luas station,TRUE,40,29,11,-6.228922158,53.34845548,0,1,1,,13.94,71,6.0032,30,331,361,02-01-2020 09:00
Mountjoy square noeth,FALSE,16,16,0,-6.258693337,53.35708473,0,1,1,,14.76,66,8.9981,20,235,255,02-01-2020 10:00
"Exchequer Street, outside Fallon Byrne ",TRUE,38,23,15,-6.263477057,53.34307452,0,1,1,,13.94,76,0,23,176,199,02-01-2020 11:00
"Stephens street upper, beside IBOA House",FALSE,30,0,0,-6.267122179,53.34103437,0,1,1,,13.94,71,7.0015,17,146,163,02-01-2020 12:00
George's street great south outside Dublin business school,TRUE,16,14,2,-6.264492273,53.34339079,0,1,1,,13.12,81,6.0032,20,142,162,02-01-2020 13:00
Exchequer street,FALSE,25,0,25,-6.263179332,53.34308013,0,0,1,,13.12,76,6.0032,16,106,122,02-01-2020 14:00
Jervis street,FALSE,20,12,8,-6.266077459,53.3471065,0,0,1,,12.3,81,6.0032,8,68,76,02-01-2020 15:00
Patrick street opposite daybreak shop,TRUE,40,10,30,-6.272172779,53.34126417,0,0,1,,13.12,81,0,2,42,44,02-01-2020 16:00
Opposite 179 Church street,FALSE,29,25,4,-6.275383383,53.34595443,0,0,1,,12.3,81,0,9,11,20,02-01-2020 17:00
Baht street lower outside Larry Murphy's,TRUE,35,30,5,-6.248770505,53.33677519,0,0,1,,10.66,87,7.0015,2,4,6,02-01-2020 18:00
Maggot street lower outside bank of ireland,TRUE,40,36,4,-6.247810274,53.33588071,0,0,1,,11.48,87,0,1,9,10,02-01-2020 19:00
,TRUE,23,1,22,-6.255081743,53.34158766,0,0,1,,9.84,93,6.0032,5,11,16,02-01-2020 20:00
Westland row,FALSE,30,22,8,-6.24988094,53.34336116,0,0,1,,10.66,87,7.0015,14,57,71,02-01-2020 21:00
Pearce street,TRUE,40,23,17,-6.245094538,53.34337317,0,0,1,,13.12,76,0,16,130,146,02-01-2020 22:00
Aungier street outside DIT,FALSE,23,18,5,-6.26622498,53.33866101,0,0,1,,14.76,66,12.998,43,216,259,02-01-2020 23:00
East wall road outside the O2,TRUE,30,0,30,-6.22726053,53.34779261,0,0,1,1,9.84,81,0,3,13,16,03-01-2020 00:00
"Camden street lower, outside centra shop",TRUE,20,19,1,-6.265138686,53.33424783,0,0,1,1,9.02,80,0,8,32,40,03-01-2020 01:00
Marks lane,FALSE,33,28,5,-6.249765605,53.34494805,0,0,1,1,9.02,80,0,5,27,32,03-01-2020 02:00
"Custom House Quay, outside AIB International Centre",FALSE,40,16,24,-6.251051724,53.34851312,0,0,1,1,9.84,75,0,3,10,13,03-01-2020 03:00
Pearce street outside garden area,FALSE,40,33,7,-6.242272854,53.34296483,0,0,1,1,9.84,75,0,0,1,1,03-01-2020 04:00
"Middle abbey street, outside arnotts carpark",FALSE,20,2,18,-6.262080967,53.34817688,0,0,2,1,9.84,75,6.0032,0,1,1,03-01-2020 05:00
Foley street,TRUE,30,14,16,-6.25176385,53.35182974,0,0,1,1,9.02,80,0,2,0,2,03-01-2020 06:00
Bloomington street outside Dargans pharmacy.,TRUE,30,13,17,-6.268160194,53.35686542,0,0,1,1,8.2,86,0,1,2,3,03-01-2020 07:00
Parnell square north,FALSE,32,13,19,-6.264363527,53.35398625,0,0,1,1,9.84,75,0,1,7,8,03-01-2020 08:00
"William street south, duke street gallery.",FALSE,40,14,26,-6.262504756,53.34211451,0,0,1,1,13.12,76,0,8,6,14,03-01-2020 09:00
North king street,FALSE,30,20,10,-6.271338612,53.35055212,0,0,1,1,15.58,76,16.9979,12,24,36,03-01-2020 10:00
Maggot street lower outside Medmark healthcare ,TRUE,30,18,12,-6.245986372,53.33485887,0,0,1,1,14.76,81,19.0012,26,30,56,03-01-2020 11:00
"Cuffe street, across from O'callaghan Stephen green hotel",FALSE,40,35,5,-6.262797117,53.33769129,0,0,1,1,17.22,77,19.0012,29,55,84,03-01-2020 12:00
Parnell street outside temple hall,FALSE,20,17,3,-6.25826081,53.35392471,0,0,2,1,18.86,72,19.9995,47,47,94,03-01-2020 13:00
Parnell street outside beauty chic,TRUE,40,18,22,-6.264474839,53.3509772,0,0,2,1,18.86,72,19.0012,35,71,106,03-01-2020 14:00
"Parnell street, outside 147 deli",FALSE,30,0,30,-6.259794384,53.35342112,0,0,2,1,18.04,77,19.9995,40,70,110,03-01-2020 15:00
"Wexford street, Infront of bank of ireland",TRUE,30,6,24,-6.265522242,53.33630513,0,0,2,1,17.22,82,19.9995,41,52,93,03-01-2020 16:00
"Bottom of George's street, beside the mercantile",FALSE,40,40,0,-6.264283061,53.34393043,0,0,2,1,18.04,82,19.0012,15,52,67,03-01-2020 17:00
Fitzwilliam Place,FALSE,30,24,6,-6.252724081,53.33299531,0,0,3,1,17.22,88,16.9979,9,26,35,03-01-2020 18:00
Capel street outside AIB bank,TRUE,40,36,4,-6.268814653,53.34846989,0,0,3,1,17.22,88,16.9979,6,31,37,03-01-2020 19:00
Merrion street lower,FALSE,30,29,1,-6.250445545,53.341293,0,0,2,1,16.4,87,16.9979,11,25,36,03-01-2020 20:00
Earlsfort Terrace,TRUE,38,6,32,-6.258763075,53.33366002,0,0,2,1,16.4,87,12.998,3,31,34,03-01-2020 21:00
Abbey street lower near abbey street luas station,FALSE,30,22,7,-6.257420629,53.34867644,0,0,2,1,16.4,94,15.0013,11,17,28,03-01-2020 22:00
Amiens street under train tracks,FALSE,40,39,1,-6.249542981,53.35221799,0,0,2,1,18.86,88,19.9995,15,24,39,03-01-2020 23:00
"Parnell Street, outside Alexander's bridal shop",FALSE,27,16,11,-6.267641187,53.34997173,0,1,2,1,24.6,88,19.9995,22,302,324,04-01-2020 00:00
Merrion square North,FALSE,40,36,4,-6.250421405,53.34094069,0,1,2,1,24.6,88,12.998,19,271,290,04-01-2020 01:00
Mount street lower opposite new mount house,FALSE,30,30,0,-6.243741363,53.33881395,0,1,2,1,24.6,88,12.998,21,186,207,04-01-2020 02:00
"Harcourt road, in front of regius building",FALSE,40,40,0,-6.263815016,53.33274144,0,1,3,1,23.78,83,31.0009,14,137,151,04-01-2020 03:00
Mercer street outside DCC,TRUE,30,25,5,-6.264456064,53.33893887,0,1,2,1,22.96,83,15.0013,11,67,78,04-01-2020 04:00
Marlborough street outside admiral restraunt,FALSE,20,14,6,-6.259013861,53.352234,0,1,2,1,22.96,68,19.0012,3,23,26,04-01-2020 05:00
Eden Quay ooutside Liberty Hall,TRUE,40,1,39,-6.255112588,53.34845308,0,1,2,1,22.14,68,16.9979,0,12,12,04-01-2020 06:00
Talbot Street outside Singer shop,FALSE,40,6,34,-6.254687458,53.35073224,0,1,2,1,22.14,64,22.0028,0,3,3,04-01-2020 07:00
"York street, across from Dublinbike station",FALSE,36,23,13,-6.262134612,53.33883157,0,1,2,1,21.32,63,16.9979,1,4,5,04-01-2020 08:00
Johnstons place outside pearls shop,TRUE,40,40,0,-6.263308078,53.34064683,0,1,2,1,21.32,68,23.9994,0,10,10,04-01-2020 09:00
"Camden street lower, outside cracker nut cafe",FALSE,40,0,40,-6.26537472,53.33501182,0,1,2,1,21.32,68,19.0012,2,54,56,04-01-2020 10:00
Blessignton street outside La Pausa cafe,FALSE,20,11,9,-6.265439093,53.35618587,0,1,1,1,21.32,63,16.9979,6,166,172,04-01-2020 11:00
North circular road and belvidire road junction,FALSE,40,0,40,-6.259095669,53.35946908,0,1,1,1,21.32,63,15.0013,16,529,545,04-01-2020 12:00
"Camden street lower, across from Fontana cafe",FALSE,40,18,22,-6.265355945,53.3351824,0,1,1,1,21.32,59,15.0013,39,758,797,04-01-2020 13:00
Parnell square west,FALSE,20,4,16,-6.265075654,53.35358842,0,1,1,1,22.14,60,16.9979,26,336,362,04-01-2020 14:00
Merrion street lower island,FALSE,30,24,6,-6.250158548,53.34184388,0,1,1,1,22.96,52,12.998,23,169,192,04-01-2020 15:00
Hatch street lower,FALSE,40,4,36,-6.256172061,53.3341197,0,1,1,1,24.6,43,16.9979,44,203,247,04-01-2020 16:00
Capel street outside capel kebab and pizza house,TRUE,20,8,12,-6.268229932,53.34716815,0,1,1,1,24.6,43,16.9979,53,260,313,04-01-2020 17:00
Jervis street opposite TP Smiths,TRUE,40,28,12,-6.266204864,53.34744836,0,1,1,1,24.6,40,16.9979,55,234,289,04-01-2020 18:00
Aaran quay outside bank of Ireland,TRUE,40,0,40,-6.27913177,53.34645482,0,1,1,1,25.42,38,16.9979,59,227,286,04-01-2020 19:00
Grattan bridge ,TRUE,20,18,2,-6.267873198,53.34572226,0,1,1,1,25.42,35,0,57,254,311,04-01-2020 20:00
Parliament Street across from florentina restaurant,TRUE,40,37,3,-6.267226785,53.34433076,0,1,1,1,25.42,35,0,69,397,466,04-01-2020 21:00
"Parliament street, outside subway ",FALSE,16,8,8,-6.267397106,53.34442924,0,1,1,1,24.6,38,15.0013,74,812,886,04-01-2020 22:00
Burgh quay,TRUE,38,8,30,-6.257717013,53.34716014,0,1,1,1,23.78,40,19.0012,85,807,892,04-01-2020 23:00
Capel street outside Dublin College of Advanced Studies,FALSE,40,25,15,-6.269459724,53.35013744,0,0,1,,16.4,58,0,86,264,350,05-01-2020 00:00
Kings Inn Street,FALSE,20,16,4,-6.268934011,53.35202907,0,0,1,,16.4,58,7.0015,143,323,466,05-01-2020 01:00
top of Parnell street,FALSE,20,15,5,-6.257198006,53.35419437,0,0,1,,19.68,48,0,258,348,606,05-01-2020 02:00
"Parnell Street, outside Burger King",TRUE,21,21,0,-6.264808774,53.3508299,0,0,1,,21.32,39,0,268,383,651,05-01-2020 03:00
Mary street outside Mary Mall,TRUE,29,29,0,-6.267952323,53.348618,0,0,1,,22.14,37,0,280,347,627,05-01-2020 04:00
Berkeley road outside Flanagans pharmacy,FALSE,40,40,0,-6.269868761,53.35896725,0,0,1,,21.32,45,0,216,351,567,05-01-2020 05:00
Mayor street lower outside AIB,FALSE,30,27,3,-6.24368906,53.34900307,0,0,1,,22.14,37,0,227,378,605,05-01-2020 06:00
George's Dock across the road from KPMG,TRUE,20,19,1,-6.24969855,53.34960348,0,0,1,,20.5,45,12.998,183,318,501,05-01-2020 07:00
Suffolk street,FALSE,40,31,9,-6.260666102,53.34371105,0,0,1,,18.04,54,8.9981,103,256,359,05-01-2020 08:00
,FALSE,40,7,33,-6.261174381,53.3400639,0,0,1,,18.86,51,6.0032,55,228,283,05-01-2020 09:00
Westmoreland street,FALSE,30,23,7,-6.249374002,53.34383275,0,0,1,,18.04,54,0,39,153,192,05-01-2020 10:00
Pearce street,FALSE,30,27,3,-6.255238652,53.34522827,0,0,1,,16.4,66,0,51,169,220,05-01-2020 11:00
"Wolfe Tone Street, outside Alexanders bridal shop",TRUE,30,3,27,-6.267784685,53.34989648,0,0,1,,15.58,71,6.0032,39,154,193,05-01-2020 12:00
Start of kings inn street,TRUE,20,19,1,-6.268844157,53.3519178,0,0,1,,14.76,71,7.0015,26,120,146,05-01-2020 13:00
"Jervis street, outside McDonolds.",FALSE,33,33,0,-6.266541481,53.34864922,0,0,1,,13.94,81,6.0032,14,110,124,05-01-2020 14:00
Camden street lower,FALSE,40,36,4,-6.26539886,53.33448808,0,0,1,,13.94,76,6.0032,26,82,108,05-01-2020 15:00
High street,FALSE,40,39,1,-6.27489002,53.34357364,0,0,1,,13.12,87,7.0015,12,58,70,05-01-2020 16:00
"York street, royal college of surgeons",FALSE,20,19,1,-6.263350993,53.33909021,0,0,1,,13.94,81,0,9,39,48,05-01-2020 17:00
Parnell street,TRUE,30,23,7,-6.268060952,53.34999014,0,0,1,,13.12,81,7.0015,5,6,11,05-01-2020 18:00
Marlborough street outside eircom and kanoodle,TRUE,30,0,30,-6.259502023,53.35296244,0,0,1,,12.3,87,8.9981,0,12,12,05-01-2020 19:00
Parnell street outside euro giant,FALSE,32,7,25,-6.266872734,53.35033197,0,0,1,,12.3,87,6.0032,3,16,19,05-01-2020 20:00
Start of Summer hill,FALSE,40,7,33,-6.256611943,53.35440329,0,0,1,,12.3,89,6.0032,12,56,68,05-01-2020 21:00
"St. Stephens Green, outside oxfam and specsavers",FALSE,30,28,2,-6.26113683,53.34013196,0,0,1,,13.12,87,7.0015,32,87,119,05-01-2020 22:00
"Parnell Street, outside Alexander's bridal shop",TRUE,30,14,16,-6.267641187,53.34997173,0,0,1,,14.76,77,0,94,179,273,05-01-2020 23:00
North circular road outside carolans off licence,FALSE,30,27,3,-6.259003133,53.35921696,0,0,2,1,18.86,88,19.9995,4,13,17,06-01-2020 00:00
"Dorset Street Upper, outside Ritzy Rags Shop",FALSE,20,8,12,-6.26837343,53.35274391,0,0,2,1,18.04,94,16.9979,1,16,17,06-01-2020 01:00
Foley street,FALSE,30,2,28,-6.252315044,53.35165203,0,0,2,1,17.22,100,19.0012,1,8,9,06-01-2020 02:00
Dorset street upper outside techno logic ,TRUE,40,38,2,-6.268642992,53.35275832,0,0,2,1,18.86,94,12.998,2,4,6,06-01-2020 03:00
Parnell street outside lomdis,FALSE,31,18,13,-6.261105984,53.35264945,0,0,2,1,18.86,94,12.998,2,1,3,06-01-2020 04:00
Top of Parnell street opposite Londis,FALSE,35,35,0,-6.257088035,53.35410392,0,0,3,1,17.22,77,19.9995,0,2,2,06-01-2020 05:00
"St Stephens green Luas, in front of certus",TRUE,40,40,0,-6.261493564,53.33916468,0,0,2,1,16.4,76,12.998,0,1,1,06-01-2020 06:00
Tara street,FALSE,30,6,24,-6.254994571,53.34695679,0,0,3,1,16.4,71,15.0013,0,8,8,06-01-2020 07:00
Mayor street upper beside the point luas station,FALSE,30,28,2,-6.228922158,53.34845548,0,0,2,1,15.58,76,15.0013,1,19,20,06-01-2020 08:00
Mountjoy square noeth,FALSE,24,3,21,-6.258693337,53.35708473,0,0,2,1,14.76,81,15.0013,7,46,53,06-01-2020 09:00
"Exchequer Street, outside Fallon Byrne ",FALSE,40,13,27,-6.263477057,53.34307452,0,0,2,1,14.76,71,16.9979,16,54,70,06-01-2020 10:00
"Stephens street upper, beside IBOA House",FALSE,36,33,3,-6.267122179,53.34103437,0,0,2,1,14.76,66,19.9995,20,73,93,06-01-2020 11:00
George's street great south outside Dublin business school,FALSE,40,31,9,-6.264492273,53.34339079,0,0,2,1,14.76,66,8.9981,11,64,75,06-01-2020 12:00
Exchequer street,FALSE,40,29,11,-6.263179332,53.34308013,0,0,3,1,14.76,76,12.998,4,55,59,06-01-2020 13:00
Jervis street,TRUE,40,38,2,-6.266077459,53.3471065,0,0,3,1,13.94,81,11.0014,19,55,74,06-01-2020 14:00
Patrick street opposite daybreak shop,TRUE,25,8,17,-6.272172779,53.34126417,0,0,3,1,13.94,71,11.0014,9,67,76,06-01-2020 15:00
Opposite 179 Church street,FALSE,29,15,14,-6.275383383,53.34595443,0,0,1,1,13.94,57,12.998,7,58,65,06-01-2020 16:00
Baht street lower outside Larry Murphy's,FALSE,30,28,2,-6.248770505,53.33677519,0,0,2,1,14.76,46,22.0028,10,43,53,06-01-2020 17:00
Maggot street lower outside bank of ireland,FALSE,20,0,20,-6.247810274,53.33588071,0,0,1,1,13.12,42,30.0026,1,29,30,06-01-2020 18:00
,FALSE,40,37,3,-6.255081743,53.34158766,0,0,1,1,12.3,39,23.9994,5,17,22,06-01-2020 19:00
Westland row,FALSE,30,20,10,-6.24988094,53.34336116,0,0,1,1,10.66,44,22.0028,11,20,31,06-01-2020 20:00
Pearce street,TRUE,29,19,10,-6.245094538,53.34337317,0,0,1,1,9.84,44,19.9995,0,9,9,06-01-2020 21:00
Aungier street outside DIT,FALSE,30,8,17,-6.26622498,53.33866101,0,0,1,1,9.02,47,11.0014,0,8,8,06-01-2020 22:00
Capel street outside Dublin College of Advanced Studies,FALSE,40,37,3,-6.269459724,53.35013744,0,1,1,1,9.02,44,23.9994,0,5,5,06-01-2020 23:00
Fatima luas stop,FALSE,30,0,0,-6.292895526,53.33847123,0,1,1,1,22.96,43,15.0013,72,539,611,07-01-2020 00:00
Phoenix street north,TRUE,16,14,2,-6.277207285,53.34695199,0,1,1,1,21.32,48,11.0014,31,378,409,07-01-2020 01:00
Merrion square east,FALSE,25,0,25,-6.246668994,53.33943693,0,1,1,1,20.5,59,11.0014,25,324,349,07-01-2020 02:00
North kings street,FALSE,20,17,3,-6.270769984,53.35073624,0,1,1,1,20.5,63,6.0032,31,198,229,07-01-2020 03:00
North kings streetboutside macro,TRUE,40,9,31,-6.270670742,53.35059775,0,1,1,1,19.68,67,6.0032,17,106,123,07-01-2020 04:00
Fitzwilliam street lower,FALSE,29,1,28,-6.248680651,53.33709791,0,1,1,1,18.86,72,7.0015,6,39,45,07-01-2020 05:00
Phisborough road opposite mc donalds,TRUE,35,0,35,-6.272837967,53.36211259,0,1,1,1,18.04,77,6.0032,5,13,18,07-01-2020 06:00
Middle abbey street ,TRUE,40,22,18,-6.262333095,53.34814966,0,1,1,1,18.86,72,0,6,6,12,07-01-2020 07:00
Middle abbey street outside hidden hearing.,TRUE,23,23,0,-6.262656301,53.34799275,0,1,1,1,18.04,77,0,1,6,7,07-01-2020 08:00
"Middle abbey street, outside celebration party shop.",FALSE,30,0,30,-6.260793507,53.3481929,0,1,1,1,17.22,82,7.0015,0,10,10,07-01-2020 09:00
St Stephen's green North,TRUE,40,40,0,-6.256654859,53.33898211,0,1,1,1,18.04,77,0,2,34,36,07-01-2020 10:00
,FALSE,23,23,0,-6.255034804,53.34144673,0,1,1,1,18.04,77,7.0015,8,147,155,07-01-2020 11:00
Sack like place,FALSE,40,22,18,-6.258557886,53.34909033,0,1,1,1,18.04,77,11.0014,13,470,483,07-01-2020 12:00
Goldsworthy street outside Foxx Coffee House,FALSE,20,20,0,-6.257915497,53.34132102,0,1,2,1,18.86,77,7.0015,40,744,784,07-01-2020 13:00
Lincoln Place,FALSE,20,2,17,-6.252296269,53.34185349,0,1,2,1,21.32,63,0,26,314,340,07-01-2020 14:00
Mount street upper,TRUE,21,20,1,-6.244401187,53.33711313,0,1,1,1,22.14,56,0,44,135,179,07-01-2020 15:00
Mount street lower opposite howl at the moon club,TRUE,29,29,0,-6.245165616,53.33927038,0,1,1,1,23.78,46,0,76,196,272,07-01-2020 16:00
Georges Quay,FALSE,40,35,5,-6.253649443,53.34738591,0,1,2,1,24.6,43,11.0014,61,262,323,07-01-2020 17:00
Grand canal docks,FALSE,30,0,30,-6.238718927,53.34301848,0,1,2,1,24.6,43,11.0014,80,225,305,07-01-2020 18:00
Grand canal docks outside fresh,TRUE,20,17,3,-6.238583475,53.34339239,0,1,2,1,24.6,43,7.0015,51,193,244,07-01-2020 19:00
Blood stone road,FALSE,40,0,40,-6.236217767,53.34491682,0,1,2,1,25.42,43,8.9981,95,234,329,07-01-2020 20:00
"Both wall quay, opposite the Spenser. ",FALSE,40,0,40,-6.24309361,53.3476477,0,1,2,1,25.42,46,16.9979,51,408,459,07-01-2020 21:00
Sir john Robertson quay,FALSE,30,30,0,-6.2415272,53.34621063,0,1,3,1,22.96,60,16.9979,65,791,856,07-01-2020 22:00
Start of Leinster street south,FALSE,30,0,30,-6.252639592,53.3417502,0,1,3,1,22.96,64,7.0015,42,571,613,07-01-2020 23:00
Merrion square North,FALSE,40,22,18,-6.250421405,53.34094069,0,0,1,,16.4,69,7.0015,133,272,405,08-01-2020 00:00
Mount street lower opposite new mount house,FALSE,20,14,6,-6.243741363,53.33881395,0,0,1,,18.86,59,8.9981,180,324,504,08-01-2020 01:00
"Harcourt road, in front of regius building",TRUE,40,31,9,-6.263815016,53.33274144,0,0,1,,20.5,48,6.0032,195,390,585,08-01-2020 02:00
Mercer street outside DCC,FALSE,30,0,30,-6.264456064,53.33893887,0,0,1,,22.14,45,7.0015,262,424,686,08-01-2020 03:00
Marlborough street outside admiral restraunt,TRUE,30,0,30,-6.259013861,53.352234,0,0,1,,24.6,33,11.0014,292,362,654,08-01-2020 04:00
Eden Quay ooutside Liberty Hall,FALSE,40,38,2,-6.255112588,53.34845308,0,0,1,,22.96,37,15.0013,304,420,724,08-01-2020 05:00
Talbot Street outside Singer shop,FALSE,30,3,27,-6.254687458,53.35073224,0,0,1,,22.14,42,15.0013,260,393,653,08-01-2020 06:00
"York street, across from Dublinbike station",TRUE,40,40,0,-6.262134612,53.33883157,0,0,1,,22.14,45,11.0014,151,342,493,08-01-2020 07:00
Johnstons place outside pearls shop,FALSE,30,26,4,-6.263308078,53.34064683,0,0,1,,21.32,45,8.9981,102,303,405,08-01-2020 08:00
"Camden street lower, outside cracker nut cafe",TRUE,38,27,11,-6.26537472,53.33501182,0,0,1,,19.68,55,8.9981,69,208,277,08-01-2020 09:00
Blessignton street outside La Pausa cafe,FALSE,30,22,8,-6.265439093,53.35618587,0,0,1,,18.04,62,11.0014,54,146,200,08-01-2020 10:00
North circular road and belvidire road junction,FALSE,40,40,0,-6.259095669,53.35946908,0,0,1,,18.04,67,15.0013,44,127,171,08-01-2020 11:00
"Camden street lower, across from Fontana cafe",FALSE,30,12,18,-6.265355945,53.3351824,0,0,1,,17.22,71,12.998,21,113,134,08-01-2020 12:00
Parnell square west,FALSE,20,18,2,-6.265075654,53.35358842,0,0,1,,17.22,71,12.998,16,93,109,08-01-2020 13:00
Merrion street lower island,FALSE,30,19,11,-6.250158548,53.34184388,1,0,1,,17.22,71,7.0015,6,43,49,08-01-2020 14:00
Hatch street lower,TRUE,40,40,0,-6.256172061,53.3341197,1,0,1,,16.4,76,11.0014,4,26,30,08-01-2020 15:00
Capel street outside capel kebab and pizza house,FALSE,31,28,3,-6.268229932,53.34716815,1,0,1,,16.4,76,8.9981,6,14,20,08-01-2020 16:00
Jervis street opposite TP Smiths,FALSE,35,21,14,-6.266204864,53.34744836,1,0,1,,16.4,76,8.9981,1,3,4,08-01-2020 17:00
Aaran quay outside bank of Ireland,TRUE,40,38,2,-6.27913177,53.34645482,1,0,1,,16.4,76,6.0032,1,3,4,08-01-2020 18:00
Grattan bridge ,FALSE,30,6,24,-6.267873198,53.34572226,1,0,1,,15.58,87,0,1,23,24,08-01-2020 19:00
Parliament Street across from florentina restaurant,FALSE,30,8,22,-6.267226785,53.34433076,1,0,1,,15.58,87,7.0015,7,64,71,08-01-2020 20:00
"Parliament street, outside subway ",FALSE,24,11,13,-6.267397106,53.34442924,1,0,1,,16.4,87,0,16,248,264,08-01-2020 21:00
Burgh quay,FALSE,40,30,10,-6.257717013,53.34716014,1,0,1,,17.22,82,11.0014,50,490,540,08-01-2020 22:00
Fatima luas stop,FALSE,36,36,0,-6.292895526,53.33847123,1,0,1,,18.04,88,7.0015,60,337,397,08-01-2020 23:00
Kings Inn Street,FALSE,40,6,34,-6.268934011,53.35202907,0,1,1,1,8.2,44,27.9993,0,2,2,09-01-2020 00:00
top of Parnell street,FALSE,40,40,0,-6.257198006,53.35419437,0,1,1,1,6.56,47,26.0027,0,1,1,09-01-2020 01:00
"Parnell Street, outside Burger King",TRUE,40,30,10,-6.264808774,53.3508299,0,1,1,1,6.56,47,19.0012,0,3,3,09-01-2020 02:00
Mary street outside Mary Mall,FALSE,40,32,8,-6.267952323,53.348618,0,1,1,1,5.74,50,26.0027,0,30,30,09-01-2020 03:00
Berkeley road outside Flanagans pharmacy,TRUE,40,40,0,-6.269868761,53.35896725,0,1,1,1,5.74,50,12.998,1,63,64,09-01-2020 04:00
Mayor street lower outside AIB,FALSE,30,0,30,-6.24368906,53.34900307,0,1,1,1,5.74,50,19.0012,1,153,154,09-01-2020 05:00
George's Dock across the road from KPMG,FALSE,30,7,23,-6.24969855,53.34960348,0,1,1,1,6.56,43,26.0027,7,81,88,09-01-2020 06:00
Suffolk street,FALSE,40,40,0,-6.260666102,53.34371105,0,1,1,1,7.38,43,16.9979,11,33,44,09-01-2020 07:00
,FALSE,30,7,23,-6.261174381,53.3400639,0,1,1,1,8.2,40,22.0028,10,41,51,09-01-2020 08:00
Westmoreland street,FALSE,20,14,6,-6.249374002,53.34383275,0,1,1,1,9.02,35,19.9995,13,48,61,09-01-2020 09:00
Pearce street,FALSE,20,2,18,-6.255238652,53.34522827,0,1,1,1,9.84,35,19.0012,8,53,61,09-01-2020 10:00
"Wolfe Tone Street, outside Alexanders bridal shop",FALSE,30,28,2,-6.267784685,53.34989648,0,1,1,1,10.66,30,19.0012,11,66,77,09-01-2020 11:00
Start of kings inn street,FALSE,22,17,5,-6.268844157,53.3519178,0,1,1,1,10.66,30,16.9979,14,58,72,09-01-2020 12:00
"Jervis street, outside McDonolds.",FALSE,38,33,5,-6.266541481,53.34864922,0,1,1,1,10.66,30,16.9979,9,67,76,09-01-2020 13:00
Camden street lower,TRUE,40,33,7,-6.26539886,53.33448808,0,1,1,1,9.84,30,15.0013,11,146,157,09-01-2020 14:00
High street,FALSE,27,26,1,-6.27489002,53.34357364,0,1,1,1,9.84,32,7.0015,9,148,157,09-01-2020 15:00
"York street, royal college of surgeons",FALSE,40,18,21,-6.263350993,53.33909021,0,1,1,1,8.2,47,0,8,102,110,09-01-2020 16:00
Parnell street,FALSE,30,30,0,-6.268060952,53.34999014,0,1,1,1,8.2,47,7.0015,3,49,52,09-01-2020 17:00
Marlborough street outside eircom and kanoodle,FALSE,40,0,40,-6.259502023,53.35296244,0,1,1,1,7.38,64,8.9981,3,49,52,09-01-2020 18:00
Parnell street outside euro giant,TRUE,30,14,16,-6.266872734,53.35033197,0,1,1,1,5.74,69,8.9981,0,20,20,09-01-2020 19:00
Start of Summer hill,FALSE,20,17,3,-6.256611943,53.35440329,0,1,1,1,7.38,55,7.0015,1,11,12,09-01-2020 20:00
"St. Stephens Green, outside oxfam and specsavers",TRUE,40,15,25,-6.26113683,53.34013196,0,1,1,1,6.56,55,7.0015,0,5,5,09-01-2020 21:00
"Parnell Street, outside Alexander's bridal shop",FALSE,40,30,10,-6.267641187,53.34997173,0,1,1,1,6.56,59,7.0015,0,2,2,09-01-2020 22:00
Merrion square North,FALSE,36,24,12,-6.250421405,53.34094069,0,1,1,1,5.74,63,8.9981,0,1,1,09-01-2020 23:00
Marlborough street opposite An Board Pleanala ,TRUE,30,0,30,-6.259177476,53.35260382,0,1,2,1,22.14,68,7.0015,33,483,516,10-01-2020 00:00
Mount street lower outside board bia,TRUE,20,11,9,-6.240792274,53.3378138,0,1,3,1,22.14,68,0,11,251,262,10-01-2020 01:00
"Camden street lower, Infront of enable ireland",FALSE,33,32,1,-6.265382767,53.33482844,0,1,2,1,22.14,73,8.9981,13,205,218,10-01-2020 02:00
North strand road,FALSE,40,24,16,-6.245928705,53.35520694,0,1,3,1,22.14,77,6.0032,17,190,207,10-01-2020 03:00
Amiens street outside the funky skunk,FALSE,40,39,1,-6.248283684,53.35334747,0,1,3,1,22.14,77,0,17,88,105,10-01-2020 04:00
"Bolton Street, outside DIT",FALSE,20,20,0,-6.269626021,53.35134383,0,1,2,1,22.96,73,0,1,30,31,10-01-2020 05:00
Eden Quay outside Beresford Court,TRUE,30,27,3,-6.25492081,53.34901267,0,1,2,1,22.14,77,7.0015,0,11,11,10-01-2020 06:00
Talbot street outside Guiney and co.,TRUE,30,30,0,-6.254671365,53.35066259,0,1,2,1,22.14,77,7.0015,0,2,2,10-01-2020 07:00
Top of Parnell street outside Foleys pharmacy,FALSE,32,32,0,-6.258886456,53.3537389,0,1,2,1,22.14,88,12.998,1,4,5,10-01-2020 08:00
St Stephens green north outside permanent tsb,FALSE,40,29,11,-6.260423362,53.3399558,0,1,2,1,22.96,83,6.0032,2,8,10,10-01-2020 09:00
Jervis Street outside Penny's,FALSE,30,30,0,-6.267024279,53.34998454,0,1,2,1,22.96,83,8.9981,1,42,43,10-01-2020 10:00
"Wexford street, djinn shop, across the road from opium
",TRUE,30,10,20,-6.265439093,53.33662064,0,1,3,1,23.78,83,7.0015,3,176,179,10-01-2020 11:00
"Aungier street, outside YMCA",FALSE,40,24,16,-6.266015768,53.3392936,0,1,3,1,23.78,83,7.0015,4,256,260,10-01-2020 12:00
Cathal Brugha street,FALSE,20,9,11,-6.25944972,53.35237568,0,1,3,1,24.6,88,0,6,128,134,10-01-2020 13:00
Cathal Brugha Street outside DIT,TRUE,40,40,0,-6.259444356,53.35225641,0,1,3,1,23.78,88,8.9981,3,83,86,10-01-2020 14:00
"Camden street lower, Simon community shop,.",FALSE,30,27,3,-6.26539886,53.33423822,0,1,3,1,23.78,88,8.9981,3,42,45,10-01-2020 15:00
Coppinger row,TRUE,30,24,6,-6.262373328,53.34211691,0,1,3,1,23.78,94,8.9981,7,92,99,10-01-2020 16:00
Parnell street outside Centra ,FALSE,40,37,3,-6.263774782,53.35127979,0,1,2,1,24.6,88,12.998,6,98,104,10-01-2020 17:00
Start of st. Stephen's Green terrace. ,FALSE,30,0,30,-6.257439405,53.3362755,0,1,2,1,24.6,88,8.9981,6,148,154,10-01-2020 18:00
"Pembroke street lower, opposite coffee angel.",TRUE,40,38,2,-6.25215143,53.33690652,0,1,3,1,24.6,88,8.9981,16,147,163,10-01-2020 19:00
"O'Connell street, median, behind Sir John Gray monument",FALSE,30,18,12,-6.259725988,53.34860279,0,1,3,1,25.42,83,8.9981,14,195,209,10-01-2020 20:00
South Circular road tesco,TRUE,38,2,36,-6.274455339,53.33232339,0,1,3,1,25.42,88,8.9981,46,328,374,10-01-2020 21:00
"Essex street east, outside the Clarence hotel",FALSE,30,0,30,-6.266537458,53.34511458,0,1,3,1,25.42,88,7.0015,38,677,715,10-01-2020 22:00
The coombe outside ovenden house. ,FALSE,40,37,3,-6.273295283,53.33919831,0,1,3,1,25.42,94,6.0032,48,639,687,10-01-2020 23:00
Phoenix street north,FALSE,40,37,3,-6.277207285,53.34695199,1,0,1,,19.68,77,11.0014,82,184,266,11-01-2020 00:00
Merrion square east,FALSE,40,38,2,-6.246668994,53.33943693,1,0,1,,21.32,72,11.0014,112,255,367,11-01-2020 01:00
North kings street,TRUE,40,33,7,-6.270769984,53.35073624,1,0,1,,22.96,64,15.0013,105,314,419,11-01-2020 02:00
North kings streetboutside macro,TRUE,25,23,2,-6.270670742,53.35059775,1,0,1,,24.6,60,15.0013,108,312,420,11-01-2020 03:00
Fitzwilliam street lower,FALSE,29,23,6,-6.248680651,53.33709791,1,0,1,,23.78,60,19.0012,134,310,444,11-01-2020 04:00
Phisborough road opposite mc donalds,FALSE,30,30,0,-6.272837967,53.36211259,1,0,1,,22.96,64,16.9979,102,280,382,11-01-2020 05:00
Middle abbey street ,FALSE,20,17,3,-6.262333095,53.34814966,1,0,1,,22.96,64,11.0014,87,347,434,11-01-2020 06:00
Middle abbey street outside hidden hearing.,FALSE,40,31,8,-6.262656301,53.34799275,1,0,1,,22.96,64,19.0012,66,530,596,11-01-2020 07:00
"Middle abbey street, outside celebration party shop.",FALSE,30,30,0,-6.260793507,53.3481929,1,0,1,,21.32,72,8.9981,65,486,551,11-01-2020 08:00
St Stephen's green North,TRUE,29,29,0,-6.256654859,53.33898211,1,0,1,,22.14,73,19.0012,30,323,353,11-01-2020 09:00
,FALSE,30,17,8,-6.255034804,53.34144673,1,0,2,,21.32,77,19.0012,31,273,304,11-01-2020 10:00
Sack like place,FALSE,40,34,6,-6.258557886,53.34909033,1,0,3,,22.14,73,15.0013,10,145,155,11-01-2020 11:00
Goldsworthy street outside Foxx Coffee House,FALSE,40,12,28,-6.257915497,53.34132102,1,0,1,,21.32,77,16.9979,12,100,112,11-01-2020 12:00
Lincoln Place,FALSE,40,40,0,-6.252296269,53.34185349,1,0,2,,22.14,77,15.0013,1,62,63,11-01-2020 13:00
Mount street upper,TRUE,40,38,2,-6.244401187,53.33711313,0,1,2,,21.32,83,19.0012,5,18,23,11-01-2020 14:00
Mount street lower opposite howl at the moon club,FALSE,40,39,1,-6.245165616,53.33927038,0,1,3,,18.04,88,43.0006,0,5,5,11-01-2020 15:00
Georges Quay,TRUE,40,40,0,-6.253649443,53.34738591,0,1,3,,14.76,87,30.0026,7,4,11,11-01-2020 16:00
Grand canal docks,FALSE,30,23,7,-6.238718927,53.34301848,0,1,3,,14.76,87,23.9994,2,3,5,11-01-2020 17:00
Grand canal docks outside fresh,FALSE,30,4,26,-6.238583475,53.34339239,0,1,2,,14.76,81,26.0027,0,9,9,11-01-2020 18:00
Blood stone road,FALSE,40,40,0,-6.236217767,53.34491682,0,1,2,,13.94,87,19.0012,0,18,18,11-01-2020 19:00
"Both wall quay, opposite the Spenser. ",FALSE,30,9,21,-6.24309361,53.3476477,0,1,3,,13.12,81,31.0009,2,48,50,11-01-2020 20:00
Sir john Robertson quay,FALSE,20,7,13,-6.2415272,53.34621063,0,1,3,,13.12,87,16.9979,1,106,107,11-01-2020 21:00
Start of Leinster street south,FALSE,20,3,17,-6.252639592,53.3417502,0,1,3,,13.12,87,16.9979,4,207,211,11-01-2020 22:00
Marlborough street opposite An Board Pleanala ,FALSE,30,22,8,-6.259177476,53.35260382,0,1,3,,13.12,81,22.0028,1,109,110,11-01-2020 23:00
Mount street lower opposite new mount house,TRUE,40,6,33,-6.243741363,53.33881395,0,1,1,1,5.74,63,6.0032,0,2,2,12-01-2020 00:00
"Harcourt road, in front of regius building",FALSE,40,6,34,-6.263815016,53.33274144,0,1,1,1,4.92,68,7.0015,0,4,4,12-01-2020 01:00
Mercer street outside DCC,FALSE,20,7,13,-6.264456064,53.33893887,0,1,1,1,4.92,74,7.0015,0,36,36,12-01-2020 02:00
Marlborough street outside admiral restraunt,FALSE,40,24,16,-6.259013861,53.352234,0,1,1,1,4.92,74,8.9981,2,92,94,12-01-2020 03:00
Eden Quay ooutside Liberty Hall,FALSE,40,40,0,-6.255112588,53.34845308,0,1,1,1,5.74,69,11.0014,2,177,179,12-01-2020 04:00
Talbot Street outside Singer shop,FALSE,20,20,0,-6.254687458,53.35073224,0,1,1,1,6.56,64,15.0013,2,98,100,12-01-2020 05:00
"York street, across from Dublinbike station",FALSE,30,9,21,-6.262134612,53.33883157,0,1,2,1,6.56,69,22.0028,5,37,42,12-01-2020 06:00
Johnstons place outside pearls shop,FALSE,40,37,3,-6.263308078,53.34064683,0,1,1,1,9.02,51,19.9995,7,50,57,12-01-2020 07:00
"Camden street lower, outside cracker nut cafe",TRUE,20,18,2,-6.26537472,53.33501182,0,1,1,1,9.02,51,11.0014,12,66,78,12-01-2020 08:00
Blessignton street outside La Pausa cafe,TRUE,40,35,5,-6.265439093,53.35618587,0,1,1,1,9.84,56,12.998,18,79,97,12-01-2020 09:00
North circular road and belvidire road junction,TRUE,40,37,3,-6.259095669,53.35946908,0,1,1,1,10.66,52,15.0013,9,54,63,12-01-2020 10:00
"Camden street lower, across from Fontana cafe",TRUE,20,13,7,-6.265355945,53.3351824,0,1,1,1,11.48,52,16.9979,17,48,65,12-01-2020 11:00
Parnell square west,TRUE,40,37,3,-6.265075654,53.35358842,0,1,1,1,12.3,49,16.9979,15,68,83,12-01-2020 12:00
Merrion street lower island,FALSE,16,11,5,-6.250158548,53.34184388,0,1,1,1,11.48,48,15.0013,10,202,212,12-01-2020 13:00
Hatch street lower,TRUE,38,11,27,-6.256172061,53.3341197,0,1,1,1,10.66,48,12.998,3,179,182,12-01-2020 14:00
Capel street outside capel kebab and pizza house,FALSE,30,0,0,-6.268229932,53.34716815,0,1,1,1,9.84,48,7.0015,2,110,112,12-01-2020 15:00
Jervis street opposite TP Smiths,TRUE,16,1,15,-6.266204864,53.34744836,0,1,1,1,9.84,48,7.0015,1,53,54,12-01-2020 16:00
Aaran quay outside bank of Ireland,FALSE,25,7,18,-6.27913177,53.34645482,0,1,1,1,9.02,64,0,0,48,48,12-01-2020 17:00
Grattan bridge ,FALSE,20,11,9,-6.267873198,53.34572226,0,1,1,1,9.02,64,6.0032,1,34,35,12-01-2020 18:00
Parliament Street across from florentina restaurant,TRUE,40,15,25,-6.267226785,53.34433076,0,1,1,1,8.2,69,6.0032,2,9,11,12-01-2020 19:00
"Parliament street, outside subway ",FALSE,29,12,17,-6.267397106,53.34442924,0,1,1,1,8.2,64,0,0,6,6,12-01-2020 20:00
Burgh quay,TRUE,35,22,13,-6.257717013,53.34716014,0,1,1,1,6.56,74,6.0032,0,6,6,12-01-2020 21:00
Fatima luas stop,TRUE,40,35,5,-6.292895526,53.33847123,0,1,1,1,6.56,74,6.0032,0,2,2,12-01-2020 22:00
Phoenix street north,TRUE,23,2,21,-6.277207285,53.34695199,0,1,1,1,9.84,48,15.0013,0,2,2,12-01-2020 23:00
"College green, median",FALSE,30,30,0,-6.260206103,53.34439721,0,1,3,1,25.42,94,0,27,368,395,13-01-2020 00:00
North king street,FALSE,20,20,0,-6.2726596,53.35032477,0,1,3,1,25.42,94,8.9981,20,286,306,13-01-2020 01:00
End of Adelaide road beside kiosk,FALSE,30,7,23,-6.253476441,53.3323394,0,1,3,1,25.42,94,7.0015,24,265,289,13-01-2020 02:00
Start of Fitzwilliam square north,TRUE,40,40,0,-6.250662804,53.33551714,0,1,2,1,25.42,94,7.0015,28,212,240,13-01-2020 03:00
"Middle abbey street,  outside independent house newspaper limited.",FALSE,31,3,28,-6.261388958,53.34824573,0,1,2,1,25.42,94,0,11,87,98,13-01-2020 04:00
"Middle abbey street, outside austrailia travel.",FALSE,35,34,1,-6.263314784,53.34790949,0,1,3,1,25.42,94,0,5,47,52,13-01-2020 05:00
Grand canal street lower,TRUE,40,40,0,-6.241157055,53.33936646,0,1,2,1,25.42,94,0,3,16,19,13-01-2020 06:00
Mount street lower opposite new mount house,FALSE,30,11,19,-6.244124919,53.33894527,0,1,2,1,25.42,94,0,2,7,9,13-01-2020 07:00
D'Oliver street,FALSE,30,30,0,-6.258493513,53.34681028,0,1,2,1,24.6,94,0,0,7,7,13-01-2020 08:00
Foley street outside dance Irelamd,FALSE,24,23,1,-6.252858192,53.35146871,0,1,2,1,24.6,100,0,2,9,11,13-01-2020 09:00
Blood stone road,FALSE,40,22,18,-6.235854328,53.34555893,0,1,2,1,25.42,94,7.0015,2,32,34,13-01-2020 10:00
Mayor square outside Snap and national college of Ireland.,FALSE,36,36,0,-6.24304533,53.34893742,0,1,2,1,24.6,94,8.9981,4,173,177,13-01-2020 11:00
"Fade street, outside the rage record store",FALSE,40,38,2,-6.263821721,53.34194797,0,1,2,1,24.6,94,12.998,11,504,515,13-01-2020 12:00
Hume street,FALSE,40,39,1,-6.255581975,53.33800839,0,1,2,1,25.42,88,7.0015,28,781,809,13-01-2020 13:00
Wolfe tone street,TRUE,40,6,34,-6.267700195,53.34936332,0,1,2,1,25.42,83,12.998,30,332,362,13-01-2020 14:00
Wolfe tone street outside AXA office,TRUE,25,9,16,-6.26718387,53.34796313,0,1,1,1,27.06,78,11.0014,29,146,175,13-01-2020 15:00
Coppinger row ,FALSE,29,29,0,-6.261603534,53.34194076,0,1,1,1,27.06,78,11.0014,52,178,230,13-01-2020 16:00
Saclville Place,FALSE,30,13,17,-6.258242726,53.34913596,0,1,2,1,28.7,70,7.0015,69,289,358,13-01-2020 17:00
Trinity street,FALSE,20,10,10,-6.26198709,53.34380633,0,1,2,1,28.7,74,7.0015,55,224,279,13-01-2020 18:00
Pearce street opposite parser square,FALSE,40,37,3,-6.242224574,53.3428079,0,1,2,1,29.52,70,11.0014,56,195,251,13-01-2020 19:00
Parnell street outside cineworld.,FALSE,30,29,1,-6.267755181,53.350079,0,1,2,1,29.52,62,11.0014,59,260,319,13-01-2020 20:00
"Abbey Street Lower, outside Abbey Theatre.",TRUE,29,29,0,-6.256624013,53.34880213,0,1,2,1,29.52,58,0,42,436,478,13-01-2020 21:00
Abbey Street Lower outside Beresford Court.,FALSE,30,0,25,-6.255399585,53.34901748,0,1,1,1,28.7,65,0,84,833,917,13-01-2020 22:00
Pearce street and Townsend street,FALSE,40,32,8,-6.256809086,53.34580232,0,1,1,1,28.7,65,0,54,756,810,13-01-2020 23:00
Mount street lower outside board bia,FALSE,22,13,9,-6.240792274,53.3378138,0,1,3,,12.3,75,26.0027,10,84,94,14-01-2020 00:00
"Camden street lower, Infront of enable ireland",FALSE,38,24,14,-6.265382767,53.33482844,0,1,1,,13.12,70,16.9979,22,133,155,14-01-2020 01:00
North strand road,TRUE,40,30,10,-6.245928705,53.35520694,0,1,1,,13.94,61,19.0012,16,180,196,14-01-2020 02:00
Amiens street outside the funky skunk,FALSE,27,26,1,-6.248283684,53.35334747,0,1,1,,13.94,53,16.9979,30,188,218,14-01-2020 03:00
"Bolton Street, outside DIT",FALSE,40,39,1,-6.269626021,53.35134383,0,1,1,,15.58,46,26.0027,34,169,203,14-01-2020 04:00
Eden Quay outside Beresford Court,FALSE,30,30,0,-6.25492081,53.34901267,0,1,1,,16.4,40,19.9995,33,184,217,14-01-2020 05:00
Talbot street outside Guiney and co.,FALSE,40,31,9,-6.254671365,53.35066259,0,1,1,,15.58,40,19.9995,28,282,310,14-01-2020 06:00
Top of Parnell street outside Foleys pharmacy,TRUE,30,25,5,-6.258886456,53.3537389,0,1,1,,13.94,49,23.9994,33,575,608,14-01-2020 07:00
St Stephens green north outside permanent tsb,FALSE,20,19,1,-6.260423362,53.3399558,0,1,1,,13.94,49,19.0012,45,514,559,14-01-2020 08:00
Jervis Street outside Penny's,TRUE,40,17,23,-6.267024279,53.34998454,0,1,1,,13.12,49,23.9994,12,344,356,14-01-2020 09:00
"Wexford street, djinn shop, across the road from opium
",FALSE,40,6,34,-6.265439093,53.33662064,0,1,1,,12.3,49,23.9994,12,211,223,14-01-2020 10:00
"Aungier street, outside YMCA",FALSE,36,36,0,-6.266015768,53.3392936,0,1,1,,12.3,49,23.9994,9,178,187,14-01-2020 11:00
Cathal Brugha street,TRUE,40,38,1,-6.25944972,53.35237568,0,1,1,,10.66,56,22.0028,15,120,135,14-01-2020 12:00
Cathal Brugha Street outside DIT,FALSE,40,0,40,-6.259444356,53.35225641,0,1,1,,10.66,56,19.9995,6,78,84,14-01-2020 13:00
"Camden street lower, Simon community shop,.",FALSE,20,0,20,-6.26539886,53.33423822,0,1,1,,10.66,56,19.0012,4,20,24,14-01-2020 14:00
Coppinger row,FALSE,40,33,7,-6.262373328,53.34211691,0,1,1,,9.84,60,19.9995,2,10,12,14-01-2020 15:00
Parnell street outside Centra ,FALSE,40,24,16,-6.263774782,53.35127979,0,1,1,,9.84,60,19.9995,0,1,1,14-01-2020 16:00
Start of st. Stephen's Green terrace. ,FALSE,20,10,10,-6.257439405,53.3362755,0,1,1,,9.84,65,15.0013,0,5,5,14-01-2020 17:00
"Pembroke street lower, opposite coffee angel.",FALSE,30,11,19,-6.25215143,53.33690652,0,1,1,,9.02,69,12.998,0,6,6,14-01-2020 18:00
"O'Connell street, median, behind Sir John Gray monument",FALSE,40,34,6,-6.259725988,53.34860279,0,1,1,,9.02,69,12.998,0,39,39,14-01-2020 19:00
South Circular road tesco,TRUE,20,16,4,-6.274455339,53.33232339,0,1,1,,9.84,65,12.998,4,142,146,14-01-2020 20:00
"Essex street east, outside the Clarence hotel",TRUE,40,26,14,-6.266537458,53.34511458,0,1,1,,9.84,65,19.0012,10,405,415,14-01-2020 21:00
The coombe outside ovenden house. ,TRUE,40,30,10,-6.273295283,53.33919831,0,1,1,,11.48,56,19.9995,27,664,691,14-01-2020 22:00
"College green, median",TRUE,20,10,10,-6.260206103,53.34439721,0,1,1,,12.3,52,26.0027,22,310,332,14-01-2020 23:00
Merrion square east,FALSE,30,24,6,-6.246668994,53.33943693,0,1,1,1,9.02,47,11.0014,0,3,3,15-01-2020 00:00
North kings street,TRUE,40,37,3,-6.270769984,53.35073624,0,1,1,1,8.2,47,15.0013,0,33,33,15-01-2020 01:00
North kings streetboutside macro,FALSE,23,20,3,-6.270670742,53.35059775,0,1,1,1,7.38,43,12.998,1,87,88,15-01-2020 02:00
Fitzwilliam street lower,FALSE,40,32,8,-6.248680651,53.33709791,0,1,1,1,8.2,40,19.9995,3,192,195,15-01-2020 03:00
Phisborough road opposite mc donalds,FALSE,20,17,3,-6.272837967,53.36211259,0,1,1,1,9.02,37,22.0028,6,109,115,15-01-2020 04:00
Middle abbey street ,FALSE,20,8,12,-6.262333095,53.34814966,0,1,1,1,9.02,37,22.0028,4,53,57,15-01-2020 05:00
Middle abbey street outside hidden hearing.,TRUE,21,14,7,-6.262656301,53.34799275,0,1,1,1,10.66,33,22.0028,12,34,46,15-01-2020 06:00
"Middle abbey street, outside celebration party shop.",TRUE,29,0,29,-6.260793507,53.3481929,0,1,1,1,10.66,33,22.0028,5,74,79,15-01-2020 07:00
St Stephen's green North,FALSE,40,36,4,-6.256654859,53.33898211,0,1,1,1,11.48,30,19.9995,6,65,71,15-01-2020 08:00
,FALSE,30,28,2,-6.255034804,53.34144673,0,1,1,1,12.3,28,12.998,10,52,62,15-01-2020 09:00
Sack like place,TRUE,20,18,2,-6.258557886,53.34909033,0,1,1,1,12.3,28,12.998,7,55,62,15-01-2020 10:00
Goldsworthy street outside Foxx Coffee House,FALSE,40,33,7,-6.257915497,53.34132102,0,1,1,1,12.3,28,6.0032,4,85,89,15-01-2020 11:00
Lincoln Place,FALSE,40,16,24,-6.252296269,53.34185349,0,1,1,1,9.84,38,12.998,4,186,190,15-01-2020 12:00
Mount street upper,FALSE,30,7,23,-6.244401187,53.33711313,0,1,1,1,9.84,38,8.9981,3,166,169,15-01-2020 13:00
Mount street lower opposite howl at the moon club,FALSE,30,1,29,-6.245165616,53.33927038,0,1,1,1,9.84,38,7.0015,5,127,132,15-01-2020 14:00
Georges Quay,TRUE,30,1,29,-6.253649443,53.34738591,0,1,1,1,9.02,47,11.0014,7,82,89,15-01-2020 15:00
Grand canal docks,TRUE,20,20,0,-6.238718927,53.34301848,0,1,1,1,8.2,51,12.998,3,40,43,15-01-2020 16:00
Grand canal docks outside fresh,FALSE,33,30,3,-6.238583475,53.34339239,0,1,1,1,7.38,55,8.9981,1,41,42,15-01-2020 17:00
Blood stone road,FALSE,40,17,23,-6.236217767,53.34491682,0,1,1,1,8.2,47,0,1,18,19,15-01-2020 18:00
"Both wall quay, opposite the Spenser. ",FALSE,40,34,6,-6.24309361,53.3476477,0,1,1,1,7.38,55,0,0,11,11,15-01-2020 19:00
Sir john Robertson quay,FALSE,20,1,19,-6.2415272,53.34621063,0,1,1,1,6.56,64,0,0,4,4,15-01-2020 20:00
Start of Leinster street south,TRUE,30,26,4,-6.252639592,53.3417502,0,1,1,1,6.56,64,0,0,2,2,15-01-2020 21:00
Marlborough street opposite An Board Pleanala ,TRUE,30,13,17,-6.259177476,53.35260382,0,1,2,1,6.56,64,6.0032,0,1,1,15-01-2020 22:00
Mount street lower outside board bia,FALSE,32,13,19,-6.240792274,53.3378138,0,1,2,1,5.74,69,6.0032,0,4,4,15-01-2020 23:00
"Stephens green, in front of beneton shop",FALSE,40,22,18,-6.260926276,53.3398373,0,1,1,1,28.7,65,0,49,544,593,16-01-2020 00:00
East wall road outside the O2 ,FALSE,40,40,0,-6.227487177,53.34842026,0,1,1,1,28.7,65,0,48,449,497,16-01-2020 01:00
"Bedford row, beside Ladbrokes",TRUE,40,35,5,-6.261851639,53.34615699,0,1,2,1,27.06,74,0,14,195,209,16-01-2020 02:00
Talbot Street outside Carrolls shop,FALSE,40,28,12,-6.2569727,53.35029835,0,1,1,1,27.06,74,0,9,232,241,16-01-2020 03:00
"Fleet Street, outside TGI restaurant.",TRUE,40,33,7,-6.259736717,53.34583434,0,1,2,1,27.06,78,0,21,199,220,16-01-2020 04:00
"Aston quay, outside house of colour",FALSE,30,0,30,-6.262689829,53.34607693,0,1,3,1,26.24,89,0,11,65,76,16-01-2020 05:00
Harcourt street outside Starbucks ,FALSE,30,0,30,-6.262397468,53.3327959,0,1,2,1,25.42,94,0,2,23,25,16-01-2020 06:00
"New bride street , Infront of small green",FALSE,40,39,1,-6.269115061,53.33779779,0,1,1,1,26.24,89,0,3,10,13,16-01-2020 07:00
Mount street ctescent,FALSE,30,30,0,-6.243086904,53.33666389,0,1,2,1,25.42,88,0,5,6,11,16-01-2020 08:00
Beresford Place median,FALSE,20,20,0,-6.254668683,53.34915197,0,1,2,1,26.24,89,0,0,10,10,16-01-2020 09:00
Kevin's street outside o haras pharmacy,FALSE,20,18,2,-6.266076118,53.33774334,0,1,3,1,26.24,89,7.0015,2,37,39,16-01-2020 10:00
Dorset street outside gaa ticket office ,FALSE,30,5,25,-6.260073334,53.36081366,0,1,3,1,25.42,94,6.0032,1,132,133,16-01-2020 11:00
"Wexford street, Infront of mega bikes.",FALSE,22,0,22,-6.265628189,53.33737258,0,1,2,1,26.24,89,6.0032,12,379,391,16-01-2020 12:00
"Camden street lower, outside ulster bank",FALSE,38,23,15,-6.265334487,53.33563406,0,1,1,1,26.24,89,0,27,711,738,16-01-2020 13:00
Mountjoy square south outside dit,TRUE,40,24,16,-6.256683022,53.35602898,0,1,2,1,26.24,89,12.998,40,319,359,16-01-2020 14:00
"Noel Purcell Walk, Infront of beaux lane house",FALSE,27,16,11,-6.26425758,53.34045385,0,1,2,1,27.06,83,8.9981,27,150,177,16-01-2020 15:00
"Chatham road, outside Mao restaurant",FALSE,40,36,4,-6.26260668,53.34104558,0,1,2,1,28.7,70,7.0015,38,176,214,16-01-2020 16:00
"William street south, outside dada restautsnt",FALSE,30,30,0,-6.263074726,53.34134584,0,1,2,1,29.52,54,12.998,57,231,288,16-01-2020 17:00
Saint Andrew street,FALSE,40,40,0,-6.261555254,53.34365901,0,1,2,1,29.52,58,22.0028,63,231,294,16-01-2020 18:00
"South George's street, outside Diwali",TRUE,30,25,5,-6.264543235,53.34274625,0,1,1,1,28.7,61,16.9979,56,211,267,16-01-2020 19:00
"George's street, outside Hogans pub",FALSE,20,14,6,-6.264674664,53.34206327,0,1,1,1,29.52,54,19.0012,77,248,325,16-01-2020 20:00
Berkeley road outside Berkeley wash,TRUE,40,1,39,-6.269145906,53.35812925,0,1,1,1,28.7,54,19.0012,86,411,497,16-01-2020 21:00
Cathal Brugha street outside the Irish aid office,FALSE,40,6,34,-6.26068756,53.35209391,0,1,1,1,28.7,51,15.0013,112,789,901,16-01-2020 22:00
Cork street,FALSE,36,23,13,-6.290507019,53.33420699,0,1,1,1,27.06,57,7.0015,75,812,887,16-01-2020 23:00
North king street,TRUE,40,40,0,-6.2726596,53.35032477,0,1,1,,13.12,45,23.9994,18,153,171,17-01-2020 00:00
End of Adelaide road beside kiosk,FALSE,16,16,0,-6.253476441,53.3323394,0,1,1,,13.12,49,16.9979,25,126,151,17-01-2020 01:00
Start of Fitzwilliam square north,TRUE,38,18,20,-6.250662804,53.33551714,0,1,1,,13.94,46,0,40,200,240,17-01-2020 02:00
"Middle abbey street,  outside independent house newspaper limited.",FALSE,30,0,0,-6.261388958,53.34824573,0,1,1,,14.76,43,16.9979,32,182,214,17-01-2020 03:00
"Middle abbey street, outside austrailia travel.",TRUE,16,0,16,-6.263314784,53.34790949,0,1,1,,14.76,43,8.9981,20,161,181,17-01-2020 04:00
Grand canal street lower,FALSE,25,0,25,-6.241157055,53.33936646,0,1,1,,14.76,43,19.0012,32,228,260,17-01-2020 05:00
Mount street lower opposite new mount house,FALSE,20,4,16,-6.244124919,53.33894527,0,1,1,,13.94,46,7.0015,31,290,321,17-01-2020 06:00
D'Oliver street,TRUE,40,10,30,-6.258493513,53.34681028,0,1,1,,13.12,49,12.998,19,564,583,17-01-2020 07:00
Foley street outside dance Irelamd,FALSE,29,26,3,-6.252858192,53.35146871,0,1,1,,13.12,53,11.0014,24,543,567,17-01-2020 08:00
Blood stone road,TRUE,35,18,17,-6.235854328,53.34555893,0,1,1,,12.3,52,11.0014,28,368,396,17-01-2020 09:00
Mayor square outside Snap and national college of Ireland.,TRUE,40,36,4,-6.24304533,53.34893742,0,1,1,,12.3,52,6.0032,15,252,267,17-01-2020 10:00
"Fade street, outside the rage record store",TRUE,23,2,21,-6.263821721,53.34194797,0,1,1,,12.3,56,0,5,208,213,17-01-2020 11:00
Hume street,FALSE,30,13,17,-6.255581975,53.33800839,0,1,1,,11.48,61,0,6,167,173,17-01-2020 12:00
Wolfe tone street,TRUE,40,40,0,-6.267700195,53.34936332,0,1,1,,9.84,70,8.9981,9,78,87,17-01-2020 13:00
Wolfe tone street outside AXA office,FALSE,23,20,3,-6.26718387,53.34796313,0,1,2,,10.66,65,0,1,33,34,17-01-2020 14:00
Coppinger row ,FALSE,40,26,14,-6.261603534,53.34194076,0,1,2,,10.66,65,7.0015,2,14,16,17-01-2020 15:00
Saclville Place,FALSE,20,17,3,-6.258242726,53.34913596,0,1,2,,10.66,70,11.0014,0,7,7,17-01-2020 16:00
Trinity street,FALSE,20,16,4,-6.26198709,53.34380633,0,1,2,,10.66,70,6.0032,0,2,2,17-01-2020 17:00
Pearce street opposite parser square,TRUE,21,19,2,-6.242224574,53.3428079,0,1,2,,11.48,65,8.9981,0,5,5,17-01-2020 18:00
Parnell street outside cineworld.,TRUE,29,25,4,-6.267755181,53.350079,0,1,2,,12.3,61,15.0013,3,34,37,17-01-2020 19:00
"Abbey Street Lower, outside Abbey Theatre.",FALSE,40,40,0,-6.256624013,53.34880213,0,1,2,,12.3,65,16.9979,1,146,147,17-01-2020 20:00
Abbey Street Lower outside Beresford Court.,FALSE,30,30,0,-6.255399585,53.34901748,0,1,2,,12.3,65,12.998,7,403,410,17-01-2020 21:00
Pearce street and Townsend street,TRUE,20,15,5,-6.256809086,53.34580232,0,1,2,,12.3,61,15.0013,21,625,646,17-01-2020 22:00
"Stephens green, in front of beneton shop",FALSE,40,18,22,-6.260926276,53.3398373,0,1,2,,13.12,61,12.998,17,306,323,17-01-2020 23:00
"Camden street lower, Infront of enable ireland",FALSE,40,12,28,-6.265382767,53.33482844,0,1,2,1,5.74,63,7.0015,0,36,36,18-01-2020 00:00
North strand road,FALSE,30,20,10,-6.245928705,53.35520694,0,1,2,1,6.56,59,0,0,95,95,18-01-2020 01:00
Amiens street outside the funky skunk,TRUE,30,15,15,-6.248283684,53.35334747,0,1,1,1,6.56,59,0,3,216,219,18-01-2020 02:00
"Bolton Street, outside DIT",FALSE,40,36,4,-6.269626021,53.35134383,0,1,2,1,7.38,51,0,6,116,122,18-01-2020 03:00
Eden Quay outside Beresford Court,FALSE,20,19,1,-6.25492081,53.34901267,0,1,1,1,8.2,47,0,3,42,45,18-01-2020 04:00
Talbot street outside Guiney and co.,TRUE,40,18,22,-6.254671365,53.35066259,0,1,1,1,9.02,44,6.0032,2,57,59,18-01-2020 05:00
Top of Parnell street outside Foleys pharmacy,FALSE,30,0,30,-6.258886456,53.3537389,0,1,1,1,10.66,35,0,6,78,84,18-01-2020 06:00
St Stephens green north outside permanent tsb,TRUE,30,4,26,-6.260423362,53.3399558,0,1,1,1,10.66,35,7.0015,12,55,67,18-01-2020 07:00
Jervis Street outside Penny's,FALSE,40,40,0,-6.267024279,53.34998454,0,1,1,1,11.48,36,11.0014,11,59,70,18-01-2020 08:00
"Wexford street, djinn shop, across the road from opium
",FALSE,30,24,6,-6.265439093,53.33662064,0,1,1,1,11.48,36,0,8,54,62,18-01-2020 09:00
"Aungier street, outside YMCA",TRUE,40,36,4,-6.266015768,53.3392936,0,1,1,1,10.66,38,11.0014,12,74,86,18-01-2020 10:00
Cathal Brugha street,FALSE,30,26,4,-6.25944972,53.35237568,0,1,1,1,9.02,51,11.0014,9,163,172,18-01-2020 11:00
Cathal Brugha Street outside DIT,TRUE,38,5,33,-6.259444356,53.35225641,0,1,1,1,9.02,51,8.9981,5,158,163,18-01-2020 12:00
"Camden street lower, Simon community shop,.",FALSE,30,23,7,-6.26539886,53.33423822,0,1,1,1,9.02,55,6.0032,3,109,112,18-01-2020 13:00
Coppinger row,FALSE,40,38,2,-6.262373328,53.34211691,0,1,1,1,8.2,51,11.0014,3,66,69,18-01-2020 14:00
Parnell street outside Centra ,FALSE,30,27,3,-6.263774782,53.35127979,0,1,2,1,9.02,55,15.0013,0,48,48,18-01-2020 15:00
Start of st. Stephen's Green terrace. ,FALSE,20,7,13,-6.257439405,53.3362755,0,1,2,1,9.02,51,19.0012,1,51,52,18-01-2020 16:00
"Pembroke street lower, opposite coffee angel.",FALSE,30,2,28,-6.25215143,53.33690652,0,1,2,1,8.2,59,12.998,4,19,23,18-01-2020 17:00
"O'Connell street, median, behind Sir John Gray monument",TRUE,40,37,3,-6.259725988,53.34860279,0,1,2,1,8.2,64,12.998,4,13,17,18-01-2020 18:00
South Circular road tesco,FALSE,31,21,10,-6.274455339,53.33232339,0,1,2,1,8.2,69,15.0013,2,5,7,18-01-2020 19:00
"Essex street east, outside the Clarence hotel",FALSE,35,35,0,-6.266537458,53.34511458,0,1,2,1,8.2,69,15.0013,0,1,1,18-01-2020 20:00
The coombe outside ovenden house. ,TRUE,40,40,0,-6.273295283,53.33919831,0,1,2,1,8.2,69,8.9981,0,1,1,18-01-2020 21:00
"College green, median",FALSE,30,10,20,-6.260206103,53.34439721,0,1,3,1,9.02,55,0,0,5,5,18-01-2020 22:00
North king street,FALSE,30,28,2,-6.2726596,53.35032477,0,1,2,1,8.2,69,0,8,26,34,18-01-2020 23:00
"Camden street lower, Infront of icon health store. ",TRUE,40,40,0,-6.265275478,53.33621064,0,1,1,1,27.06,57,7.0015,67,467,534,19-01-2020 00:00
"Drury street, outside Carousel",FALSE,40,0,40,-6.262984872,53.34294562,0,1,1,1,26.24,65,7.0015,50,391,441,19-01-2020 01:00
Drury street outside Irish design shop,FALSE,20,11,9,-6.263002306,53.34274225,0,1,1,1,25.42,69,0,33,288,321,19-01-2020 02:00
"End of Hatch street lower, both sides of the road, outside cafe sol",FALSE,40,0,40,-6.255485415,53.33438318,0,1,1,1,26.24,47,8.9981,29,203,232,19-01-2020 03:00
Hatch street lower,FALSE,40,18,22,-6.25756681,53.33374331,0,1,1,1,24.6,56,6.0032,18,137,155,19-01-2020 04:00
"George's street, opposite Dublin business school",FALSE,20,4,16,-6.264339387,53.34348527,0,1,1,1,22.96,73,0,16,86,102,19-01-2020 05:00
Open square beside Dublin City hall,FALSE,30,24,6,-6.266876757,53.34402251,0,1,1,1,22.14,68,7.0015,3,43,46,19-01-2020 06:00
Capel street outside spar,FALSE,40,4,36,-6.26842171,53.34736269,0,1,1,1,22.14,73,6.0032,1,10,11,19-01-2020 07:00
"Great strand street, outside pantibar",TRUE,20,8,12,-6.267835647,53.34653888,0,1,1,1,22.14,73,0,5,11,16,19-01-2020 08:00
"Essex street west, outside the gaiety school of acting.",TRUE,40,28,12,-6.268506199,53.34472227,0,1,1,1,22.14,77,0,0,11,11,19-01-2020 09:00
Wellington quay,TRUE,40,0,40,-6.267154366,53.34537639,0,1,1,1,21.32,77,0,0,41,41,19-01-2020 10:00
Four courts luas stop,TRUE,20,18,2,-6.272738725,53.34685272,0,1,1,1,21.32,83,0,4,133,137,19-01-2020 11:00
Marlborough street,TRUE,40,37,3,-6.257389784,53.34818009,0,1,1,1,21.32,83,7.0015,11,417,428,19-01-2020 12:00
Thomas street across from the hill top bar,FALSE,16,8,8,-6.28135398,53.34313377,0,1,1,1,23.78,64,0,36,749,785,19-01-2020 13:00
Francis street opposite the liberty bell pub,TRUE,38,8,30,-6.275115162,53.34155082,0,1,1,1,24.6,60,6.0032,58,326,384,19-01-2020 14:00
Cornmarket street outside farrow and ball,FALSE,30,0,0,-6.275891662,53.34326188,0,1,1,1,27.06,54,0,68,192,260,19-01-2020 15:00
May lane outside Hanley at the bar,TRUE,16,14,2,-6.275187582,53.3480536,0,1,1,1,28.7,48,12.998,90,214,304,19-01-2020 16:00
North kings street outside centra,FALSE,25,0,25,-6.270484328,53.35087553,0,1,1,1,29.52,42,11.0014,161,307,468,19-01-2020 17:00
Cathal Brugha Street outside the Living Room pub,FALSE,20,17,3,-6.260164529,53.35221318,0,1,1,1,28.7,48,0,117,307,424,19-01-2020 18:00
Parliament street outside paramount hotel,TRUE,40,9,31,-6.267481595,53.34471186,0,1,1,1,30.34,37,15.0013,113,287,400,19-01-2020 19:00
Parliament street outside spar shop,FALSE,29,1,28,-6.267346144,53.34468624,0,1,1,1,29.52,39,16.9979,150,320,470,19-01-2020 20:00
"Eustace street, outside the Italian corner restaurant",TRUE,35,0,35,-6.264945567,53.34561337,0,1,1,1,29.52,37,0,153,481,634,19-01-2020 21:00
"Essex street, outside the shack restaurant.",TRUE,40,22,18,-6.264374256,53.34549008,0,1,1,1,28.7,42,11.0014,158,742,900,19-01-2020 22:00
"Cope street, behind central bank",TRUE,23,23,0,-6.26306802,53.34492803,0,1,1,1,26.24,57,8.9981,106,655,761,19-01-2020 23:00
East wall road outside the O2 ,FALSE,40,0,40,-6.227487177,53.34842026,0,1,2,,13.12,66,8.9981,11,142,153,20-01-2020 00:00
"Bedford row, beside Ladbrokes",FALSE,30,23,7,-6.261851639,53.34615699,0,1,2,,13.94,61,8.9981,28,138,166,20-01-2020 01:00
Talbot Street outside Carrolls shop,FALSE,30,20,10,-6.2569727,53.35029835,0,1,2,,14.76,62,7.0015,29,184,213,20-01-2020 02:00
"Fleet Street, outside TGI restaurant.",TRUE,30,1,29,-6.259736717,53.34583434,0,1,2,,15.58,54,7.0015,20,197,217,20-01-2020 03:00
"Aston quay, outside house of colour",TRUE,20,20,0,-6.262689829,53.34607693,0,1,2,,15.58,54,11.0014,27,174,201,20-01-2020 04:00
Harcourt street outside Starbucks ,FALSE,33,30,3,-6.262397468,53.3327959,0,1,2,,15.58,58,11.0014,26,191,217,20-01-2020 05:00
"New bride street , Infront of small green",FALSE,40,33,7,-6.269115061,53.33779779,0,1,2,,14.76,57,12.998,24,318,342,20-01-2020 06:00
Mount street ctescent,FALSE,40,38,2,-6.243086904,53.33666389,0,1,2,,14.76,57,15.0013,22,541,563,20-01-2020 07:00
Beresford Place median,FALSE,20,20,0,-6.254668683,53.34915197,0,1,2,,14.76,57,12.998,10,563,573,20-01-2020 08:00
Kevin's street outside o haras pharmacy,TRUE,30,30,0,-6.266076118,53.33774334,0,1,2,,13.94,61,8.9981,11,375,386,20-01-2020 09:00
Dorset street outside gaa ticket office ,TRUE,30,14,16,-6.260073334,53.36081366,0,1,1,,13.94,61,7.0015,23,262,285,20-01-2020 10:00
"Wexford street, Infront of mega bikes.",FALSE,32,14,18,-6.265628189,53.33737258,0,1,2,,13.12,66,7.0015,20,204,224,20-01-2020 11:00
"Camden street lower, outside ulster bank",FALSE,40,10,30,-6.265334487,53.33563406,0,1,2,,13.12,66,11.0014,10,143,153,20-01-2020 12:00
Mountjoy square south outside dit,FALSE,30,30,0,-6.256683022,53.35602898,0,1,2,,13.12,61,11.0014,7,118,125,20-01-2020 13:00
"Noel Purcell Walk, Infront of beaux lane house",TRUE,30,24,6,-6.26425758,53.34045385,0,1,2,,13.12,66,7.0015,7,58,65,20-01-2020 14:00
"Chatham road, outside Mao restaurant",FALSE,40,24,16,-6.26260668,53.34104558,0,1,2,,12.3,65,6.0032,5,16,21,20-01-2020 15:00
"William street south, outside dada restautsnt",FALSE,20,16,4,-6.263074726,53.34134584,0,1,2,,12.3,70,11.0014,0,9,9,20-01-2020 16:00
Saint Andrew street,TRUE,40,33,7,-6.261555254,53.34365901,0,1,2,,12.3,65,8.9981,0,6,6,20-01-2020 17:00
"South George's street, outside Diwali",FALSE,30,1,29,-6.264543235,53.34274625,0,1,2,,12.3,65,7.0015,0,5,5,20-01-2020 18:00
"George's street, outside Hogans pub",TRUE,30,0,30,-6.264674664,53.34206327,0,1,2,,12.3,65,6.0032,2,34,36,20-01-2020 19:00
Berkeley road outside Berkeley wash,FALSE,40,35,5,-6.269145906,53.35812925,0,1,2,,12.3,61,6.0032,4,126,130,20-01-2020 20:00
Cathal Brugha street outside the Irish aid office,FALSE,30,0,30,-6.26068756,53.35209391,0,1,2,,12.3,61,11.0014,5,362,367,20-01-2020 21:00
Cork street,TRUE,40,37,3,-6.290507019,53.33420699,0,1,2,,13.12,57,8.9981,17,694,711,20-01-2020 22:00
"Camden street lower, Infront of icon health store. ",FALSE,30,28,2,-6.265275478,53.33621064,0,1,1,,13.94,53,7.0015,21,330,351,20-01-2020 23:00
End of Adelaide road beside kiosk,FALSE,24,0,24,-6.253476441,53.3323394,0,1,1,1,8.2,69,8.9981,8,76,84,21-01-2020 00:00
Start of Fitzwilliam square north,FALSE,40,11,29,-6.250662804,53.33551714,0,1,1,1,8.2,51,16.9979,20,190,210,21-01-2020 01:00
"Middle abbey street,  outside independent house newspaper limited.",FALSE,36,33,3,-6.261388958,53.34824573,0,1,1,1,8.2,47,19.9995,9,125,134,21-01-2020 02:00
"Middle abbey street, outside austrailia travel.",FALSE,40,33,7,-6.263314784,53.34790949,0,1,1,1,9.02,37,22.0028,16,47,63,21-01-2020 03:00
Grand canal street lower,FALSE,40,37,3,-6.241157055,53.33936646,0,1,2,1,8.2,40,15.0013,19,48,67,21-01-2020 04:00
Mount street lower opposite new mount house,TRUE,40,38,2,-6.244124919,53.33894527,0,1,2,1,8.2,37,16.9979,9,50,59,21-01-2020 05:00
D'Oliver street,TRUE,25,6,19,-6.258493513,53.34681028,0,1,2,1,8.2,37,19.0012,9,64,73,21-01-2020 06:00
Foley street outside dance Irelamd,FALSE,29,14,15,-6.252858192,53.35146871,0,1,2,1,8.2,40,16.9979,7,43,50,21-01-2020 07:00
Blood stone road,FALSE,30,23,7,-6.235854328,53.34555893,0,1,2,1,8.2,37,11.0014,9,63,72,21-01-2020 08:00
Mayor square outside Snap and national college of Ireland.,FALSE,20,1,19,-6.24304533,53.34893742,0,1,2,1,8.2,37,11.0014,5,82,87,21-01-2020 09:00
"Fade street, outside the rage record store",FALSE,40,36,4,-6.263821721,53.34194797,0,1,2,1,8.2,37,0,9,178,187,21-01-2020 10:00
Hume street,FALSE,30,19,11,-6.255581975,53.33800839,0,1,1,1,8.2,40,6.0032,7,116,123,21-01-2020 11:00
Wolfe tone street,TRUE,29,19,10,-6.267700195,53.34936332,0,1,1,1,6.56,55,6.0032,3,92,95,21-01-2020 12:00
Wolfe tone street outside AXA office,FALSE,30,5,20,-6.26718387,53.34796313,0,1,1,1,7.38,47,7.0015,1,50,51,21-01-2020 13:00
Coppinger row ,FALSE,40,37,3,-6.261603534,53.34194076,0,1,1,1,7.38,47,8.9981,0,39,39,21-01-2020 14:00
Saclville Place,FALSE,40,4,36,-6.258242726,53.34913596,0,1,2,1,7.38,43,11.0014,2,34,36,21-01-2020 15:00
Trinity street,FALSE,40,40,0,-6.26198709,53.34380633,0,1,2,1,7.38,51,11.0014,1,14,15,21-01-2020 16:00
Pearce street opposite parser square,TRUE,40,33,7,-6.242224574,53.3428079,0,0,2,1,7.38,51,11.0014,1,24,25,21-01-2020 17:00
Parnell street outside cineworld.,FALSE,40,32,8,-6.267755181,53.350079,0,0,2,1,7.38,55,6.0032,1,15,16,21-01-2020 18:00
"Abbey Street Lower, outside Abbey Theatre.",TRUE,40,40,0,-6.256624013,53.34880213,0,0,2,1,7.38,55,0,3,13,16,21-01-2020 19:00
Abbey Street Lower outside Beresford Court.,FALSE,30,0,30,-6.255399585,53.34901748,0,0,3,1,7.38,55,11.0014,0,7,7,21-01-2020 20:00
Pearce street and Townsend street,FALSE,30,5,25,-6.256809086,53.34580232,0,0,3,1,7.38,55,11.0014,0,1,1,21-01-2020 21:00
"Stephens green, in front of beneton shop",FALSE,40,40,0,-6.260926276,53.3398373,0,0,2,1,6.56,74,11.0014,0,5,5,21-01-2020 22:00
East wall road outside the O2 ,FALSE,30,7,23,-6.227487177,53.34842026,0,0,2,1,6.56,74,11.0014,0,2,2,21-01-2020 23:00
"Temple bar, outside Rory's fishing shop.",FALSE,30,0,30,-6.262601316,53.34562138,0,1,1,1,25.42,73,11.0014,67,433,500,22-01-2020 00:00
"Fleet Street, outside hard rock cafe",TRUE,40,40,0,-6.260741204,53.34577029,0,1,1,1,24.6,78,8.9981,66,306,372,22-01-2020 01:00
Burgh quay,FALSE,23,23,0,-6.25832051,53.34702084,0,1,1,1,24.6,69,15.0013,47,220,267,22-01-2020 02:00
Cork street,FALSE,40,22,18,-6.290792674,53.33423022,0,1,1,1,24.6,73,19.0012,63,201,264,22-01-2020 03:00
"Westmorleland street, outside Bewleys",FALSE,20,20,0,-6.259278059,53.34617781,0,1,1,1,23.78,78,15.0013,23,148,171,22-01-2020 04:00
Christchurch square,FALSE,20,2,17,-6.271794587,53.34257811,0,0,1,1,22.96,83,11.0014,37,154,191,22-01-2020 05:00
Thomas street outside st johns priory,TRUE,21,20,1,-6.277763844,53.34286315,0,0,1,1,22.96,83,16.9979,25,116,141,22-01-2020 06:00
Merchants quay,TRUE,29,29,0,-6.272678375,53.34495686,0,0,1,1,22.96,78,12.998,13,62,75,22-01-2020 07:00
Parkgate street outside Landis\subwau,FALSE,40,35,5,-6.294609457,53.34817688,0,0,1,1,22.14,77,15.0013,2,54,56,22-01-2020 08:00
"Capel street, outside mcQuillan tools",FALSE,30,0,30,-6.26865238,53.34804559,0,0,1,1,22.14,83,16.9979,4,7,11,22-01-2020 09:00
Fitzwilliam street upper,TRUE,20,17,3,-6.250543445,53.33552355,0,0,1,1,22.14,83,12.998,2,8,10,22-01-2020 10:00
Fitzwilliam street lower,FALSE,40,0,40,-6.248227358,53.33788988,0,0,1,1,22.14,88,16.9979,2,28,30,22-01-2020 11:00
Fitzwilliam street lower,FALSE,40,0,40,-6.248077154,53.33777617,0,0,1,1,22.14,83,19.9995,13,71,84,22-01-2020 12:00
Church street Londis,FALSE,30,30,0,-6.274377555,53.35003177,0,0,1,1,22.96,83,12.998,22,184,206,22-01-2020 13:00
Top of Smithfield,FALSE,30,0,30,-6.277834922,53.34944898,0,0,1,1,24.6,73,12.998,130,265,395,22-01-2020 14:00
Fitzwilliam square north,TRUE,30,0,30,-6.251549274,53.33571254,0,0,1,1,25.42,69,19.0012,198,341,539,22-01-2020 15:00
Manor street,TRUE,20,11,9,-6.285188198,53.35308412,0,0,1,1,26.24,65,16.9979,258,389,647,22-01-2020 16:00
Middle abbey street across the road from the Gin Palace  pub,FALSE,33,32,1,-6.263397932,53.34801997,0,0,1,1,28.7,54,7.0015,362,381,743,22-01-2020 17:00
"Camden street, Infront of great deals store.",FALSE,40,24,16,-6.265190989,53.33592955,0,0,2,1,26.24,57,35.0008,310,400,710,22-01-2020 18:00
Berkeley road outside post office,FALSE,40,39,1,-6.269591153,53.35858467,0,0,2,1,24.6,56,27.9993,269,307,576,22-01-2020 19:00
Liffey street outside entrance to Arnotts.,FALSE,20,20,0,-6.264034957,53.34852353,0,0,1,1,24.6,46,27.9993,279,341,620,22-01-2020 20:00
Mount street uppwr,TRUE,30,27,3,-6.244546026,53.33702184,0,0,1,1,24.6,43,35.0008,317,342,659,22-01-2020 21:00
Charlemont place beside luas station ,TRUE,30,30,0,-6.258653104,53.33091783,0,0,1,1,22.14,49,26.0027,268,342,610,22-01-2020 22:00
Grand canal docks,FALSE,32,32,0,-6.238808781,53.34258852,0,0,1,1,21.32,48,27.9993,183,312,495,22-01-2020 23:00
"Drury street, outside Carousel",TRUE,38,23,15,-6.262984872,53.34294562,0,1,1,,13.94,53,12.998,33,165,198,23-01-2020 00:00
Drury street outside Irish design shop,FALSE,30,18,12,-6.263002306,53.34274225,0,1,1,,15.58,43,15.0013,33,185,218,23-01-2020 01:00
"End of Hatch street lower, both sides of the road, outside cafe sol",FALSE,40,40,0,-6.255485415,53.33438318,0,1,1,,16.4,43,19.0012,28,262,290,23-01-2020 02:00
Hatch street lower,FALSE,30,17,13,-6.25756681,53.33374331,0,1,1,,17.22,38,12.998,52,226,278,23-01-2020 03:00
"George's street, opposite Dublin business school",FALSE,20,19,1,-6.264339387,53.34348527,0,1,1,,17.22,35,7.0015,47,204,251,23-01-2020 04:00
Open square beside Dublin City hall,FALSE,30,18,12,-6.266876757,53.34402251,0,1,1,,17.22,38,8.9981,30,237,267,23-01-2020 05:00
Capel street outside spar,TRUE,40,40,0,-6.26842171,53.34736269,0,1,1,,17.22,35,19.0012,33,350,383,23-01-2020 06:00
"Great strand street, outside pantibar",FALSE,31,29,2,-6.267835647,53.34653888,0,1,1,,14.76,46,12.998,41,539,580,23-01-2020 07:00
"Essex street west, outside the gaiety school of acting.",FALSE,35,35,0,-6.268506199,53.34472227,0,1,1,,13.94,53,11.0014,22,483,505,23-01-2020 08:00
Wellington quay,TRUE,40,40,0,-6.267154366,53.34537639,0,1,1,,14.76,46,15.0013,26,306,332,23-01-2020 09:00
Four courts luas stop,FALSE,30,1,29,-6.272738725,53.34685272,0,1,1,,14.76,46,16.9979,20,207,227,23-01-2020 10:00
Marlborough street,FALSE,30,21,9,-6.257389784,53.34818009,0,1,1,,13.94,49,12.998,21,157,178,23-01-2020 11:00
Thomas street across from the hill top bar,FALSE,24,3,21,-6.28135398,53.34313377,0,1,1,,13.12,53,16.9979,23,139,162,23-01-2020 12:00
Francis street opposite the liberty bell pub,FALSE,40,30,10,-6.275115162,53.34155082,0,1,1,,13.12,53,15.0013,14,114,128,23-01-2020 13:00
Cornmarket street outside farrow and ball,FALSE,36,36,0,-6.275891662,53.34326188,0,0,1,,12.3,52,11.0014,11,95,106,23-01-2020 14:00
May lane outside Hanley at the bar,FALSE,40,39,1,-6.275187582,53.3480536,0,0,1,,10.66,60,12.998,13,74,87,23-01-2020 15:00
North kings street outside centra,FALSE,40,29,11,-6.270484328,53.35087553,0,0,1,,10.66,65,12.998,8,41,49,23-01-2020 16:00
Cathal Brugha Street outside the Living Room pub,TRUE,40,29,11,-6.260164529,53.35221318,0,0,1,,10.66,65,12.998,2,19,21,23-01-2020 17:00
Parliament street outside paramount hotel,TRUE,25,24,1,-6.267481595,53.34471186,0,0,1,,9.84,70,12.998,1,6,7,23-01-2020 18:00
Parliament street outside spar shop,FALSE,29,17,12,-6.267346144,53.34468624,0,0,1,,9.84,70,11.0014,1,10,11,23-01-2020 19:00
"Eustace street, outside the Italian corner restaurant",FALSE,30,24,6,-6.264945567,53.34561337,0,0,1,,9.84,70,15.0013,0,21,21,23-01-2020 20:00
"Essex street, outside the shack restaurant.",FALSE,20,17,3,-6.264374256,53.34549008,0,0,1,,9.84,70,12.998,8,70,78,23-01-2020 21:00
"Cope street, behind central bank",FALSE,40,38,1,-6.26306802,53.34492803,0,0,1,,10.66,65,15.0013,30,138,168,23-01-2020 22:00
"Temple bar, outside Rory's fishing shop.",FALSE,30,22,8,-6.262601316,53.34562138,0,0,1,,13.94,49,15.0013,48,200,248,23-01-2020 23:00
"Bedford row, beside Ladbrokes",FALSE,20,14,6,-6.261851639,53.34615699,0,0,2,1,6.56,74,7.0015,1,8,9,24-01-2020 00:00
Talbot Street outside Carrolls shop,FALSE,20,1,19,-6.2569727,53.35029835,0,0,3,1,6.56,93,7.0015,0,15,15,24-01-2020 01:00
"Fleet Street, outside TGI restaurant.",FALSE,30,28,2,-6.259736717,53.34583434,0,0,3,1,6.56,93,7.0015,0,20,20,24-01-2020 02:00
"Aston quay, outside house of colour",FALSE,22,16,6,-6.262689829,53.34607693,0,0,2,1,7.38,80,11.0014,5,56,61,24-01-2020 03:00
Harcourt street outside Starbucks ,FALSE,38,34,4,-6.262397468,53.3327959,0,0,2,1,8.2,69,26.0027,2,60,62,24-01-2020 04:00
"New bride street , Infront of small green",TRUE,40,34,6,-6.269115061,53.33779779,0,0,2,1,8.2,59,23.9994,8,90,98,24-01-2020 05:00
Mount street ctescent,FALSE,27,26,1,-6.243086904,53.33666389,0,0,1,1,8.2,44,22.0028,7,95,102,24-01-2020 06:00
Beresford Place median,FALSE,40,23,16,-6.254668683,53.34915197,0,0,1,1,8.2,32,32.9975,12,83,95,24-01-2020 07:00
Kevin's street outside o haras pharmacy,FALSE,30,30,0,-6.266076118,53.33774334,0,0,1,1,8.2,32,30.0026,5,69,74,24-01-2020 08:00
Dorset street outside gaa ticket office ,FALSE,40,1,39,-6.260073334,53.36081366,0,0,1,1,7.38,29,30.0026,8,68,76,24-01-2020 09:00
"Wexford street, Infront of mega bikes.",TRUE,30,14,16,-6.265628189,53.33737258,0,0,1,1,6.56,37,36.9974,5,64,69,24-01-2020 10:00
"Camden street lower, outside ulster bank",FALSE,20,18,2,-6.265334487,53.33563406,0,0,1,1,5.74,39,19.9995,3,52,55,24-01-2020 11:00
Mountjoy square south outside dit,TRUE,40,16,24,-6.256683022,53.35602898,0,0,1,1,5.74,36,16.9979,4,26,30,24-01-2020 12:00
"Noel Purcell Walk, Infront of beaux lane house",FALSE,40,30,10,-6.26425758,53.34045385,0,0,1,1,4.92,36,16.9979,0,28,28,24-01-2020 13:00
"Chatham road, outside Mao restaurant",FALSE,36,26,10,-6.26260668,53.34104558,0,0,1,1,4.92,39,23.9994,2,35,37,24-01-2020 14:00
"William street south, outside dada restautsnt",TRUE,40,5,34,-6.263074726,53.34134584,0,0,1,1,4.92,36,26.0027,1,33,34,24-01-2020 15:00
Saint Andrew street,FALSE,40,6,34,-6.261555254,53.34365901,0,0,1,1,4.1,39,30.0026,0,22,22,24-01-2020 16:00
"South George's street, outside Diwali",FALSE,20,4,16,-6.264543235,53.34274625,0,0,1,1,4.1,42,26.0027,1,24,25,24-01-2020 17:00
"George's street, outside Hogans pub",FALSE,40,21,19,-6.264674664,53.34206327,0,0,1,1,4.1,42,31.0009,0,12,12,24-01-2020 18:00
Berkeley road outside Berkeley wash,FALSE,40,40,0,-6.269145906,53.35812925,0,0,1,1,4.1,46,31.0009,0,11,11,24-01-2020 19:00
Cathal Brugha street outside the Irish aid office,FALSE,20,18,2,-6.26068756,53.35209391,0,0,1,1,4.1,46,27.9993,0,4,4,24-01-2020 20:00
Cork street,FALSE,30,9,20,-6.290507019,53.33420699,0,0,1,1,3.28,53,12.998,0,1,1,24-01-2020 21:00
"Camden street lower, Infront of icon health store. ",FALSE,40,37,3,-6.265275478,53.33621064,0,0,1,1,3.28,53,12.998,0,1,1,24-01-2020 22:00
"Drury street, outside Carousel",TRUE,20,20,0,-6.262984872,53.34294562,0,0,1,1,4.1,49,19.0012,0,1,1,24-01-2020 23:00
Admiral brown street,FALSE,40,29,11,-6.239453852,53.34532995,0,0,1,1,19.68,55,15.0013,102,239,341,25-01-2020 00:00
All along Forbes street,FALSE,30,30,0,-6.238279045,53.34498248,0,0,1,1,19.68,55,16.9979,75,172,247,25-01-2020 01:00
Blood stone /road horse fair intersection,TRUE,30,10,20,-6.235983074,53.3450089,0,0,1,1,18.86,59,8.9981,78,137,215,25-01-2020 02:00
A'll along bood stone road,FALSE,40,24,16,-6.235950887,53.34507375,0,0,1,1,18.04,62,8.9981,45,140,185,25-01-2020 03:00
All along Forbes street,FALSE,20,9,11,-6.238179803,53.34482395,0,0,1,1,18.04,62,8.9981,37,142,179,25-01-2020 04:00
"Fade street, outside hogans bar",TRUE,40,40,0,-6.264417171,53.34207047,0,0,1,1,18.04,62,11.0014,28,99,127,25-01-2020 05:00
Benson street,FALSE,30,27,3,-6.233445704,53.34433076,0,0,1,1,18.04,54,15.0013,29,80,109,25-01-2020 06:00
Horse fair,TRUE,30,24,6,-6.236972809,53.34497847,0,0,1,1,17.22,62,8.9981,10,64,74,25-01-2020 07:00
Prussia street,FALSE,40,37,3,-6.287840903,53.35609622,0,0,2,1,18.04,62,8.9981,5,17,22,25-01-2020 08:00
"Start of South William street, outside jewl in the crown",FALSE,30,0,30,-6.262051463,53.3428119,0,0,2,1,18.04,54,16.9979,5,6,11,25-01-2020 09:00
 Parnell square west outside the rotunda hospital ,TRUE,40,38,2,-6.26450032,53.35301127,0,0,2,1,18.04,54,8.9981,2,8,10,25-01-2020 10:00
,FALSE,30,18,12,-6.290662587,53.34183507,0,0,2,1,18.04,54,12.998,4,19,23,25-01-2020 11:00
"Queen street, probation service ",TRUE,38,2,36,-6.279795617,53.34779341,0,0,3,1,17.22,58,11.0014,6,29,35,25-01-2020 12:00
"Christ church place, outside sunny's newsagent",FALSE,30,0,30,-6.270240247,53.34315219,0,0,3,1,17.22,67,8.9981,11,51,62,25-01-2020 13:00
"Wexford street, outside solo clothes shop.",FALSE,40,37,3,-6.265384108,53.33649172,0,0,3,1,16.4,71,8.9981,16,70,86,25-01-2020 14:00
Francis street outside reillys pharmacy ,FALSE,30,30,0,-6.276079416,53.34295923,0,0,2,1,17.22,67,12.998,41,144,185,25-01-2020 15:00
Houston train station,FALSE,20,20,0,-6.293238848,53.34612577,0,0,2,1,17.22,71,7.0015,76,260,336,25-01-2020 16:00
"Top of baggot street lower, end of pembroke street lower",FALSE,30,7,23,-6.251306534,53.33771531,0,0,2,1,17.22,71,0,100,292,392,25-01-2020 17:00
"Edge of exchequer street, outside pharmacy and rustic stone",TRUE,40,40,0,-6.264303178,53.34296563,0,0,2,1,18.04,72,6.0032,80,240,320,25-01-2020 18:00
"Essex street, outside zaytoon",FALSE,31,3,28,-6.267253608,53.34496807,0,0,2,1,18.04,67,0,71,243,314,25-01-2020 19:00
"Dame street,  outside Nico's restaurant",FALSE,35,34,1,-6.26409933,53.3442603,0,0,3,1,17.22,77,8.9981,74,232,306,25-01-2020 20:00
"Prince's street north, outside penny's.",TRUE,40,40,0,-6.260648668,53.34896464,0,0,3,1,16.4,82,11.0014,87,246,333,25-01-2020 21:00
Leinster street south outside TCD Leinster street,FALSE,30,11,19,-6.252918541,53.34181265,0,0,3,1,16.4,82,15.0013,35,122,157,25-01-2020 22:00
Aungier street outside DIT,FALSE,30,30,0,-6.266168654,53.33863779,0,0,3,1,16.4,82,12.998,24,82,106,25-01-2020 23:00
"Fleet Street, outside hard rock cafe",TRUE,29,27,2,-6.260741204,53.34577029,0,0,1,,14.76,46,16.9979,62,258,320,26-01-2020 00:00
Burgh quay,FALSE,30,14,11,-6.25832051,53.34702084,0,0,1,,15.58,43,12.998,80,343,423,26-01-2020 01:00
Cork street,FALSE,40,33,7,-6.290792674,53.33423022,0,0,1,,16.4,40,11.0014,117,359,476,26-01-2020 02:00
"Westmorleland street, outside Bewleys",FALSE,40,21,19,-6.259278059,53.34617781,0,0,1,,17.22,38,16.9979,179,346,525,26-01-2020 03:00
Christchurch square,FALSE,40,38,2,-6.271794587,53.34257811,0,0,1,,17.22,38,12.998,175,380,555,26-01-2020 04:00
Thomas street outside st johns priory,TRUE,40,38,2,-6.277763844,53.34286315,0,0,1,,17.22,35,19.9995,175,374,549,26-01-2020 05:00
Merchants quay,FALSE,40,38,2,-6.272678375,53.34495686,0,0,1,,16.4,40,15.0013,144,325,469,26-01-2020 06:00
Parkgate street outside Landis\subwau,TRUE,40,40,0,-6.294609457,53.34817688,0,0,1,,15.58,40,11.0014,101,302,403,26-01-2020 07:00
"Capel street, outside mcQuillan tools",FALSE,30,20,10,-6.26865238,53.34804559,0,0,1,,14.76,50,7.0015,34,237,271,26-01-2020 08:00
Fitzwilliam street upper,FALSE,30,0,30,-6.250543445,53.33552355,0,0,1,,13.94,53,6.0032,45,208,253,26-01-2020 09:00
Fitzwilliam street lower,FALSE,40,40,0,-6.248227358,53.33788988,0,0,2,,13.94,66,6.0032,30,142,172,26-01-2020 10:00
Fitzwilliam street lower,FALSE,30,19,11,-6.248077154,53.33777617,0,0,2,,13.12,57,7.0015,15,124,139,26-01-2020 11:00
Church street Londis,FALSE,20,16,4,-6.274377555,53.35003177,0,0,2,,13.12,57,7.0015,15,130,145,26-01-2020 12:00
Top of Smithfield,FALSE,20,7,13,-6.277834922,53.34944898,0,0,2,,12.3,70,7.0015,19,114,133,26-01-2020 13:00
Fitzwilliam square north,FALSE,30,19,11,-6.251549274,53.33571254,0,0,2,,12.3,70,11.0014,11,118,129,26-01-2020 14:00
Manor street,FALSE,22,5,17,-6.285188198,53.35308412,0,0,1,,12.3,70,12.998,14,81,95,26-01-2020 15:00
Middle abbey street across the road from the Gin Palace  pub,FALSE,38,24,14,-6.263397932,53.34801997,0,0,1,,11.48,81,7.0015,8,65,73,26-01-2020 16:00
"Camden street, Infront of great deals store.",TRUE,40,27,13,-6.265190989,53.33592955,0,0,2,,12.3,81,11.0014,9,37,46,26-01-2020 17:00
Berkeley road outside post office,FALSE,27,25,2,-6.269591153,53.35858467,0,0,2,,12.3,81,12.998,4,8,12,26-01-2020 18:00
Liffey street outside entrance to Arnotts.,FALSE,40,34,6,-6.264034957,53.34852353,0,0,1,,11.48,81,8.9981,5,7,12,26-01-2020 19:00
Mount street uppwr,FALSE,30,30,0,-6.244546026,53.33702184,0,0,1,,11.48,81,11.0014,2,13,15,26-01-2020 20:00
Charlemont place beside luas station ,FALSE,40,34,6,-6.258653104,53.33091783,0,0,1,,11.48,81,12.998,3,39,42,26-01-2020 21:00
Grand canal docks,TRUE,30,25,5,-6.238808781,53.34258852,0,0,1,,12.3,75,16.9979,19,100,119,26-01-2020 22:00
Admiral brown street,FALSE,20,20,0,-6.239453852,53.34532995,0,0,1,,13.12,70,16.9979,49,155,204,26-01-2020 23:00
Drury street outside Irish design shop,TRUE,40,34,6,-6.263002306,53.34274225,0,0,1,1,3.28,53,12.998,1,5,6,27-01-2020 00:00
"End of Hatch street lower, both sides of the road, outside cafe sol",TRUE,40,36,4,-6.255485415,53.33438318,0,0,1,1,4.1,49,19.0012,0,10,10,27-01-2020 01:00
Hatch street lower,TRUE,20,13,7,-6.25756681,53.33374331,0,0,1,1,4.92,46,35.0008,0,19,19,27-01-2020 02:00
"George's street, opposite Dublin business school",TRUE,40,37,3,-6.264339387,53.34348527,0,0,1,1,5.74,43,26.0027,0,49,49,27-01-2020 03:00
Open square beside Dublin City hall,FALSE,16,10,6,-6.266876757,53.34402251,0,0,1,1,6.56,40,35.0008,2,47,49,27-01-2020 04:00
Capel street outside spar,TRUE,38,10,28,-6.26842171,53.34736269,0,0,1,1,7.38,37,30.0026,4,79,83,27-01-2020 05:00
"Great strand street, outside pantibar",FALSE,30,0,0,-6.267835647,53.34653888,0,0,1,1,8.2,34,30.0026,6,69,75,27-01-2020 06:00
"Essex street west, outside the gaiety school of acting.",TRUE,16,0,16,-6.268506199,53.34472227,0,0,1,1,9.02,32,31.0009,8,64,72,27-01-2020 07:00
Wellington quay,FALSE,25,10,15,-6.267154366,53.34537639,0,0,1,1,9.02,35,23.9994,5,77,82,27-01-2020 08:00
Four courts luas stop,FALSE,20,12,8,-6.272738725,53.34685272,0,0,1,1,8.2,34,30.0026,13,79,92,27-01-2020 09:00
Marlborough street,TRUE,40,17,23,-6.257389784,53.34818009,0,0,1,1,7.38,37,26.0027,3,59,62,27-01-2020 10:00
Thomas street across from the hill top bar,FALSE,29,13,16,-6.28135398,53.34313377,0,0,1,1,6.56,40,22.0028,4,44,48,27-01-2020 11:00
Francis street opposite the liberty bell pub,TRUE,35,21,14,-6.275115162,53.34155082,0,0,1,1,6.56,43,22.0028,1,40,41,27-01-2020 12:00
Cornmarket street outside farrow and ball,TRUE,40,35,5,-6.275891662,53.34326188,0,0,1,1,5.74,46,16.9979,0,38,38,27-01-2020 13:00
May lane outside Hanley at the bar,TRUE,23,2,21,-6.275187582,53.3480536,0,0,1,1,5.74,46,27.9993,1,19,20,27-01-2020 14:00
North kings street outside centra,FALSE,30,23,7,-6.270484328,53.35087553,0,0,1,1,5.74,46,19.9995,5,10,15,27-01-2020 15:00
Cathal Brugha Street outside the Living Room pub,TRUE,40,37,3,-6.260164529,53.35221318,0,0,1,1,4.92,50,12.998,0,6,6,27-01-2020 16:00
Parliament street outside paramount hotel,FALSE,23,19,4,-6.267481595,53.34471186,0,1,1,1,4.92,50,19.0012,2,3,5,27-01-2020 17:00
Parliament street outside spar shop,FALSE,40,32,8,-6.267346144,53.34468624,0,1,1,1,4.92,50,19.0012,1,0,1,27-01-2020 18:00
"Eustace street, outside the Italian corner restaurant",FALSE,20,17,3,-6.264945567,53.34561337,0,1,1,1,4.92,50,15.0013,0,3,3,27-01-2020 19:00
"Essex street, outside the shack restaurant.",FALSE,20,5,15,-6.264374256,53.34549008,0,1,1,1,4.92,50,15.0013,0,1,1,27-01-2020 20:00
"Cope street, behind central bank",TRUE,21,16,5,-6.26306802,53.34492803,0,1,1,1,4.1,54,8.9981,1,2,3,27-01-2020 21:00
"Temple bar, outside Rory's fishing shop.",TRUE,29,2,27,-6.262601316,53.34562138,0,1,1,1,4.1,54,16.9979,0,3,3,27-01-2020 22:00
"Fleet Street, outside hard rock cafe",FALSE,40,36,4,-6.260741204,53.34577029,0,1,1,1,4.92,50,19.0012,0,31,31,27-01-2020 23:00
Start of castle street,FALSE,24,23,1,-6.267496347,53.34391522,0,0,2,1,16.4,82,7.0015,17,97,114,28-01-2020 00:00
"Molesworth street, ",FALSE,40,22,18,-6.258029491,53.34132903,0,0,1,1,16.4,82,8.9981,19,97,116,28-01-2020 01:00
Parnell Streer outside Aldi,FALSE,36,36,0,-6.265747547,53.35051289,0,0,1,1,15.58,87,7.0015,22,91,113,28-01-2020 02:00
"Prince's street north, outside penny's",FALSE,40,38,2,-6.260790825,53.34894062,0,0,1,1,15.58,87,8.9981,7,72,79,28-01-2020 03:00
Talbot street outside wake cup,FALSE,40,39,1,-6.250971258,53.35126939,0,0,1,1,14.76,93,8.9981,12,68,80,28-01-2020 04:00
"Capel Street, outside The Horse Shoe shop",TRUE,40,6,34,-6.269926429,53.35090915,1,0,1,1,15.58,76,19.0012,7,44,51,28-01-2020 05:00
Parnell street outside king fisher restraunt.,TRUE,25,9,16,-6.263267845,53.35177931,1,0,1,1,13.94,87,11.0014,2,35,37,28-01-2020 06:00
"Johnstone place, outside pharmacy",FALSE,29,29,0,-6.263511926,53.34102076,1,0,1,1,13.94,81,12.998,3,12,15,28-01-2020 07:00
"Camden street upper, outside damascus gate restaurant ",FALSE,30,13,17,-6.265024692,53.33286797,1,0,1,1,13.94,81,7.0015,2,8,10,28-01-2020 08:00
"Trinity street, outside jack jones shop",FALSE,20,10,10,-6.262032688,53.34383996,1,0,1,1,13.12,87,8.9981,1,6,7,28-01-2020 09:00
"End of Liffey street lower, outside the grand social",FALSE,40,37,3,-6.263313442,53.34680228,1,0,1,1,13.94,76,15.0013,2,17,19,28-01-2020 10:00
End of Patricia street outside spar,FALSE,30,29,1,-6.272449046,53.33910542,1,0,1,1,13.94,76,7.0015,5,54,59,28-01-2020 11:00
"Start of westborough street, beside the butchers bar",TRUE,29,29,0,-6.269899607,53.34332353,1,0,2,1,13.94,76,11.0014,3,151,154,28-01-2020 12:00
Heuston Luas stop,FALSE,30,0,25,-6.29202649,53.34690716,1,0,2,1,14.76,71,15.0013,23,374,397,28-01-2020 13:00
James street outside McCanns pub,FALSE,40,32,8,-6.288935244,53.34351569,1,0,2,1,15.58,66,11.0014,59,273,332,28-01-2020 14:00
Thomas street outside Massey bros funeral home,FALSE,40,22,18,-6.280841678,53.34319623,1,0,2,1,15.58,68,8.9981,69,229,298,28-01-2020 15:00
"Essex street east, outside costa cafe.",FALSE,40,40,0,-6.265047491,53.34538679,1,0,2,1,16.4,62,6.0032,72,236,308,28-01-2020 16:00
"Eustace street, outside the orseman pub",TRUE,40,35,5,-6.264875829,53.34536358,1,0,2,1,17.22,63,11.0014,74,267,341,28-01-2020 17:00
"Cecilia street, outside temple lane recording studios",FALSE,40,28,12,-6.263965219,53.3450073,1,0,2,1,17.22,62,12.998,82,323,405,28-01-2020 18:00
"Cecilia street, outside luigi malones restaurant",TRUE,40,33,7,-6.263536066,53.3450113,1,0,2,1,17.22,58,7.0015,121,299,420,28-01-2020 19:00
"Fleet Street, across from thunder road cafe",FALSE,30,0,30,-6.261535138,53.34571905,1,0,3,1,17.22,58,12.998,76,294,370,28-01-2020 20:00
Infirmary road,FALSE,30,0,30,-6.295009106,53.34846509,1,0,3,1,17.22,58,12.998,61,316,377,28-01-2020 21:00
Middle abbey street outside arnotts.,FALSE,40,39,1,-6.262722015,53.34809683,1,0,2,1,17.22,66,16.9979,81,416,497,28-01-2020 22:00
Upper abbey street near the Jervia Luas stop.,FALSE,30,30,0,-6.264595538,53.34786626,1,0,2,1,17.22,66,19.0012,41,415,456,28-01-2020 23:00
Parkgate street outside Landis\subwau,TRUE,30,3,27,-6.294609457,53.34817688,0,1,2,1,8.2,40,19.0012,4,50,54,29-01-2020 00:00
"Capel street, outside mcQuillan tools",TRUE,20,19,1,-6.26865238,53.34804559,0,1,2,1,8.2,40,15.0013,0,47,47,29-01-2020 01:00
Fitzwilliam street upper,FALSE,33,33,0,-6.250543445,53.33552355,0,1,2,1,8.2,40,15.0013,2,43,45,29-01-2020 02:00
Fitzwilliam street lower,FALSE,40,26,14,-6.248227358,53.33788988,0,1,1,1,8.2,40,8.9981,4,70,74,29-01-2020 03:00
Fitzwilliam street lower,FALSE,40,35,5,-6.248077154,53.33777617,0,1,1,1,8.2,40,7.0015,4,174,178,29-01-2020 04:00
Church street Londis,FALSE,20,1,19,-6.274377555,53.35003177,0,1,1,1,8.2,40,15.0013,1,154,155,29-01-2020 05:00
Top of Smithfield,TRUE,30,28,2,-6.277834922,53.34944898,0,1,1,1,6.56,47,11.0014,3,92,95,29-01-2020 06:00
Fitzwilliam square north,TRUE,30,6,24,-6.251549274,53.33571254,0,1,1,1,6.56,50,11.0014,1,73,74,29-01-2020 07:00
Manor street,FALSE,32,5,27,-6.285188198,53.35308412,0,1,1,1,5.74,59,12.998,1,37,38,29-01-2020 08:00
Middle abbey street across the road from the Gin Palace  pub,FALSE,40,10,30,-6.263397932,53.34801997,0,1,1,1,5.74,59,11.0014,2,22,24,29-01-2020 09:00
"Camden street, Infront of great deals store.",FALSE,30,20,10,-6.265190989,53.33592955,0,1,1,1,5.74,59,11.0014,0,18,18,29-01-2020 10:00
Berkeley road outside post office,TRUE,30,20,10,-6.269591153,53.35858467,0,1,1,1,5.74,59,7.0015,2,10,12,29-01-2020 11:00
Liffey street outside entrance to Arnotts.,FALSE,40,35,5,-6.264034957,53.34852353,0,1,1,1,5.74,59,11.0014,0,3,3,29-01-2020 12:00
Mount street uppwr,FALSE,20,17,3,-6.244546026,53.33702184,0,1,2,1,6.56,55,12.998,0,3,3,29-01-2020 13:00
Charlemont place beside luas station ,TRUE,40,22,18,-6.258653104,53.33091783,0,1,2,1,6.56,55,8.9981,0,6,6,29-01-2020 14:00
Grand canal docks,FALSE,30,6,24,-6.238808781,53.34258852,0,1,2,1,6.56,55,8.9981,0,27,27,29-01-2020 15:00
Admiral brown street,TRUE,30,7,23,-6.239453852,53.34532995,0,1,2,1,6.56,55,0,2,97,99,29-01-2020 16:00
All along Forbes street,FALSE,40,40,0,-6.238279045,53.34498248,0,1,2,1,7.38,51,6.0032,3,214,217,29-01-2020 17:00
All along Forbes street,TRUE,40,8,32,-6.238279045,53.34498248,0,0,1,,13.94,66,19.9995,79,250,329,29-01-2020 18:00
Blood stone /road horse fair intersection,FALSE,40,6,34,-6.235983074,53.3450089,0,0,1,,15.58,62,19.0012,92,267,359,29-01-2020 19:00
A'll along bood stone road,FALSE,36,34,2,-6.235950887,53.34507375,0,0,1,,16.4,62,19.0012,101,341,442,29-01-2020 20:00
All along Forbes street,TRUE,40,24,16,-6.238179803,53.34482395,0,0,1,,16.4,62,22.0028,113,334,447,29-01-2020 21:00
"Fade street, outside hogans bar",FALSE,40,0,40,-6.264417171,53.34207047,0,0,1,,16.4,62,19.9995,125,303,428,29-01-2020 22:00
Benson street,FALSE,20,4,16,-6.233445704,53.34433076,0,0,1,,17.22,54,19.0012,89,318,407,29-01-2020 23:00
Horse fair,FALSE,40,21,19,-6.236972809,53.34497847,0,0,2,,16.4,62,22.0028,59,313,372,30-01-2020 00:00
Prussia street,FALSE,40,23,17,-6.287840903,53.35609622,0,0,2,,15.58,66,16.9979,48,232,280,30-01-2020 01:00
"Start of South William street, outside jewl in the crown",FALSE,20,7,13,-6.262051463,53.3428119,0,0,1,,14.76,66,15.0013,36,240,276,30-01-2020 02:00
 Parnell square west outside the rotunda hospital ,FALSE,30,0,30,-6.26450032,53.35301127,0,0,1,,14.76,66,11.0014,16,194,210,30-01-2020 03:00
,FALSE,40,28,12,-6.290662587,53.34183507,0,0,1,,14.76,66,11.0014,9,120,129,30-01-2020 04:00
"Queen street, probation service ",TRUE,20,17,3,-6.279795617,53.34779341,0,0,1,,14.76,66,16.9979,17,93,110,30-01-2020 05:00
"Christ church place, outside sunny's newsagent",TRUE,40,25,15,-6.270240247,53.34315219,0,0,2,,14.76,66,16.9979,8,66,74,30-01-2020 06:00
"Wexford street, outside solo clothes shop.",TRUE,40,22,18,-6.265384108,53.33649172,0,0,1,,14.76,66,15.0013,6,53,59,30-01-2020 07:00
Francis street outside reillys pharmacy ,TRUE,20,18,2,-6.276079416,53.34295923,0,1,1,,14.76,66,15.0013,5,22,27,30-01-2020 08:00
Houston train station,TRUE,40,40,0,-6.293238848,53.34612577,0,1,2,,14.76,66,15.0013,0,19,19,30-01-2020 09:00
"Top of baggot street lower, end of pembroke street lower",FALSE,16,16,0,-6.251306534,53.33771531,0,1,2,,14.76,66,16.9979,0,5,5,30-01-2020 10:00
"Edge of exchequer street, outside pharmacy and rustic stone",TRUE,38,18,20,-6.264303178,53.34296563,0,1,2,,14.76,66,15.0013,0,2,2,30-01-2020 11:00
"Essex street, outside zaytoon",FALSE,30,0,0,-6.267253608,53.34496807,0,1,2,,14.76,66,15.0013,1,11,12,30-01-2020 12:00
"Dame street,  outside Nico's restaurant",TRUE,16,0,16,-6.26409933,53.3442603,0,1,2,,14.76,66,15.0013,1,38,39,30-01-2020 13:00
"Prince's street north, outside penny's.",FALSE,25,11,14,-6.260648668,53.34896464,0,1,2,,14.76,66,16.9979,3,128,131,30-01-2020 14:00
Leinster street south outside TCD Leinster street,FALSE,20,1,19,-6.252918541,53.34181265,0,1,2,,14.76,66,19.9995,5,381,386,30-01-2020 15:00
Aungier street outside DIT,TRUE,40,12,28,-6.266168654,53.33863779,0,1,2,,14.76,66,19.9995,13,650,663,30-01-2020 16:00
Start of castle street,FALSE,29,21,8,-6.267496347,53.34391522,0,1,2,,14.76,66,16.9979,18,260,278,30-01-2020 17:00
Burgh quay,FALSE,30,27,3,-6.25832051,53.34702084,0,1,1,1,4.92,50,15.0013,2,75,77,30-01-2020 18:00
Cork street,TRUE,20,16,4,-6.290792674,53.33423022,0,1,2,1,4.92,50,19.0012,4,184,188,30-01-2020 19:00
"Westmorleland street, outside Bewleys",FALSE,40,33,7,-6.259278059,53.34617781,0,1,2,1,5.74,50,16.9979,2,92,94,30-01-2020 20:00
Christchurch square,FALSE,40,15,25,-6.271794587,53.34257811,0,1,2,1,5.74,50,19.9995,0,31,31,30-01-2020 21:00
Thomas street outside st johns priory,FALSE,30,4,26,-6.277763844,53.34286315,0,1,2,1,6.56,47,19.0012,2,28,30,30-01-2020 22:00
Merchants quay,FALSE,30,0,30,-6.272678375,53.34495686,0,1,2,1,8.2,40,19.0012,5,47,52,30-01-2020 23:00
Talbot street across the road from Paddy Power,FALSE,20,20,0,-6.252361983,53.35108127,1,0,2,1,16.4,71,16.9979,38,333,371,31-01-2020 00:00
Top of Forbes street,FALSE,20,18,2,-6.238356829,53.34462059,1,0,3,1,16.4,71,15.0013,20,207,227,31-01-2020 01:00
All along blood stone road,FALSE,30,5,25,-6.236162782,53.3446302,1,0,2,1,16.4,76,15.0013,17,134,151,31-01-2020 02:00
North Circular road outside Matter hospital. ,FALSE,22,0,22,-6.266330928,53.3602014,1,0,3,1,16.4,76,16.9979,6,101,107,31-01-2020 03:00
Parnell street outside Jervis medical centre,FALSE,38,23,15,-6.267299205,53.35003097,1,0,2,1,16.4,71,15.0013,9,60,69,31-01-2020 04:00
"Wood quay, outside DCC",TRUE,40,24,16,-6.270107478,53.34501931,0,1,2,1,15.58,82,15.0013,9,22,31,31-01-2020 05:00
Start of marborough street outside the abbey theatre,FALSE,27,16,11,-6.257431358,53.34837783,0,1,3,1,14.76,87,15.0013,0,13,13,31-01-2020 06:00
Ormond square,FALSE,40,36,4,-6.271288991,53.34610495,0,1,3,1,14.76,87,16.9979,2,5,7,31-01-2020 07:00
"Drury street, outside George's st. arcade",FALSE,30,30,0,-6.263249069,53.34238835,0,1,3,1,14.76,87,19.0012,0,3,3,31-01-2020 08:00
Sponsor Dock Luas station,FALSE,40,40,0,-6.237128377,53.34872687,0,1,3,1,14.76,87,11.0014,1,6,7,31-01-2020 09:00
Outside criminal courts of justice,TRUE,30,25,5,-6.296098083,53.34829617,0,1,2,1,15.58,82,12.998,0,19,19,31-01-2020 10:00
"Houston station,",FALSE,20,14,6,-6.297288984,53.3466958,0,1,2,1,15.58,82,16.9979,2,141,143,31-01-2020 11:00
Eden quay,TRUE,40,1,39,-6.257094741,53.34794472,0,1,1,1,15.58,83,16.9979,5,357,362,31-01-2020 12:00
"Chatham road, outside DIT music and drama",FALSE,40,6,34,-6.262814552,53.34105679,0,1,2,1,17.22,80,12.998,15,698,713,31-01-2020 13:00
Parnell street outside cycleways. ,FALSE,36,23,13,-6.265170872,53.35093077,0,1,2,1,17.22,77,15.0013,37,345,382,31-01-2020 14:00
Bottom of grafton streer,TRUE,40,40,0,-6.259318292,53.34330432,0,1,2,1,18.04,75,15.0013,33,131,164,31-01-2020 15:00
Baggot street lower outside tailored finance.,FALSE,40,0,40,-6.247524619,53.3359728,0,1,2,1,19.68,69,12.998,37,156,193,31-01-2020 16:00
"Essex street, outside the porterhouse pub",FALSE,20,11,9,-6.267343462,53.34503372,0,1,2,1,19.68,69,12.998,43,217,260,31-01-2020 17:00
"Wexford street, in front of whelans off licence",FALSE,40,0,40,-6.265596002,53.33655017,0,1,2,1,20.5,67,8.9981,54,184,238,31-01-2020 18:00
Capel street outside codys of Capel Street.,FALSE,40,18,22,-6.26895681,53.34913196,0,1,2,1,22.14,64,12.998,43,201,244,31-01-2020 19:00
Parnell street across the road from Euro Giant shop,FALSE,20,4,16,-6.266548187,53.35023351,0,1,2,1,21.32,63,11.0014,59,195,254,31-01-2020 20:00
Marlborough Street outside Spar shop,FALSE,30,24,6,-6.258189082,53.35024071,0,1,2,1,20.5,72,11.0014,70,354,424,31-01-2020 21:00
Amiens Street at Luas station,FALSE,40,4,36,-6.249909103,53.35103243,0,1,2,1,21.32,68,11.0014,73,733,806,31-01-2020 22:00
"Camden street, outside penny farthing cycles",TRUE,20,8,12,-6.265365332,53.33578381,0,1,2,1,20.5,72,15.0013,26,758,784,31-01-2020 23:00
Blood stone /road horse fair intersection,FALSE,30,24,6,-6.235983074,53.3450089,0,1,2,1,7.38,51,11.0014,3,127,130,01-02-2020 00:00
A'll along bood stone road,TRUE,40,33,7,-6.235950887,53.34507375,0,1,2,1,8.2,51,11.0014,3,51,54,01-02-2020 01:00
All along Forbes street,FALSE,30,20,10,-6.238179803,53.34482395,0,1,2,1,8.2,47,8.9981,4,31,35,01-02-2020 02:00
"Fade street, outside hogans bar",TRUE,38,11,27,-6.264417171,53.34207047,0,1,2,1,8.2,51,7.0015,2,55,57,01-02-2020 03:00
Benson street,FALSE,30,26,4,-6.233445704,53.34433076,0,1,2,1,8.2,59,6.0032,6,46,52,01-02-2020 04:00
Horse fair,FALSE,40,32,8,-6.236972809,53.34497847,0,1,2,1,8.2,59,6.0032,3,60,63,01-02-2020 05:00
Prussia street,FALSE,30,26,4,-6.287840903,53.35609622,0,1,2,1,6.56,80,6.0032,2,45,47,01-02-2020 06:00
"Start of South William street, outside jewl in the crown",FALSE,20,6,14,-6.262051463,53.3428119,0,1,2,1,6.56,86,15.0013,4,72,76,01-02-2020 07:00
 Parnell square west outside the rotunda hospital ,FALSE,30,1,29,-6.26450032,53.35301127,0,1,2,1,6.56,86,15.0013,6,130,136,01-02-2020 08:00
,TRUE,40,29,11,-6.290662587,53.34183507,0,1,3,1,6.56,93,7.0015,1,94,95,01-02-2020 09:00
"Queen street, probation service ",FALSE,31,22,9,-6.279795617,53.34779341,0,1,3,1,6.56,93,0,0,51,51,01-02-2020 10:00
"Christ church place, outside sunny's newsagent",FALSE,35,31,4,-6.270240247,53.34315219,0,1,3,1,6.56,93,12.998,0,32,32,01-02-2020 11:00
"Wexford street, outside solo clothes shop.",TRUE,40,40,0,-6.265384108,53.33649172,0,1,3,1,6.56,86,6.0032,0,20,20,01-02-2020 12:00
Francis street outside reillys pharmacy ,FALSE,30,7,23,-6.276079416,53.34295923,0,1,3,1,6.56,93,7.0015,1,28,29,01-02-2020 13:00
Houston train station,FALSE,30,26,4,-6.293238848,53.34612577,0,1,3,1,6.56,93,6.0032,1,18,19,01-02-2020 14:00
"Top of baggot street lower, end of pembroke street lower",FALSE,24,12,12,-6.251306534,53.33771531,0,1,2,1,6.56,86,6.0032,0,7,7,01-02-2020 15:00
"Edge of exchequer street, outside pharmacy and rustic stone",FALSE,40,5,35,-6.264303178,53.34296563,0,1,2,1,6.56,86,7.0015,0,6,6,01-02-2020 16:00
"Essex street, outside zaytoon",FALSE,36,31,5,-6.267253608,53.34496807,0,1,1,1,5.74,86,8.9981,0,1,1,01-02-2020 17:00
"Dame street,  outside Nico's restaurant",FALSE,40,30,10,-6.26409933,53.3442603,0,1,1,1,5.74,86,11.0014,0,5,5,01-02-2020 18:00
"Prince's street north, outside penny's.",FALSE,40,22,18,-6.260648668,53.34896464,0,1,1,1,4.92,93,8.9981,0,16,16,01-02-2020 19:00
Leinster street south outside TCD Leinster street,TRUE,40,40,0,-6.252918541,53.34181265,0,1,1,1,5.74,69,8.9981,0,54,54,01-02-2020 20:00
Aungier street outside DIT,TRUE,25,18,7,-6.266168654,53.33863779,0,1,1,1,6.56,59,11.0014,3,125,128,01-02-2020 21:00
Start of castle street,FALSE,29,14,15,-6.267496347,53.34391522,0,1,1,1,6.56,59,22.0028,3,78,81,01-02-2020 22:00
"Molesworth street, ",FALSE,30,17,13,-6.258029491,53.34132903,0,1,1,1,7.38,55,15.0013,0,39,39,01-02-2020 23:00
"Molesworth street, ",TRUE,35,15,20,-6.258029491,53.34132903,0,1,2,,14.76,66,16.9979,33,106,139,02-02-2020 00:00
Parnell Streer outside Aldi,TRUE,40,35,5,-6.265747547,53.35051289,0,1,2,,15.58,66,16.9979,33,164,197,02-02-2020 01:00
"Prince's street north, outside penny's",TRUE,23,0,23,-6.260790825,53.34894062,0,1,2,,16.4,62,19.0012,35,207,242,02-02-2020 02:00
Talbot street outside wake cup,FALSE,30,4,26,-6.250971258,53.35126939,0,1,1,,18.04,54,16.9979,46,205,251,02-02-2020 03:00
"Capel Street, outside The Horse Shoe shop",TRUE,40,40,0,-6.269926429,53.35090915,0,1,1,,18.04,54,16.9979,47,170,217,02-02-2020 04:00
Parnell street outside king fisher restraunt.,FALSE,23,21,2,-6.263267845,53.35177931,0,1,1,,18.04,54,12.998,44,213,257,02-02-2020 05:00
"Johnstone place, outside pharmacy",FALSE,40,28,12,-6.263511926,53.34102076,0,1,1,,17.22,58,16.9979,55,325,380,02-02-2020 06:00
"Camden street upper, outside damascus gate restaurant ",FALSE,20,20,0,-6.265024692,53.33286797,0,1,2,,17.22,58,12.998,33,586,619,02-02-2020 07:00
"Trinity street, outside jack jones shop",FALSE,20,15,5,-6.262032688,53.34383996,0,1,2,,16.4,58,16.9979,21,559,580,02-02-2020 08:00
"End of Liffey street lower, outside the grand social",TRUE,21,21,0,-6.263313442,53.34680228,0,1,2,,16.4,58,19.0012,25,381,406,02-02-2020 09:00
End of Patricia street outside spar,TRUE,29,19,10,-6.272449046,53.33910542,0,1,2,,15.58,62,16.9979,7,252,259,02-02-2020 10:00
"Start of westborough street, beside the butchers bar",FALSE,40,40,0,-6.269899607,53.34332353,0,1,2,,15.58,54,15.0013,15,188,203,02-02-2020 11:00
Heuston Luas stop,FALSE,30,27,3,-6.29202649,53.34690716,0,1,1,,13.94,66,7.0015,7,106,113,02-02-2020 12:00
James street outside McCanns pub,TRUE,20,16,4,-6.288935244,53.34351569,0,1,1,,13.94,66,7.0015,2,72,74,02-02-2020 13:00
Thomas street outside Massey bros funeral home,FALSE,40,8,32,-6.280841678,53.34319623,0,0,1,,10.66,81,0,9,99,108,02-02-2020 14:00
"Essex street east, outside costa cafe.",FALSE,40,0,40,-6.265047491,53.34538679,0,0,1,,10.66,81,0,5,64,69,02-02-2020 15:00
"Eustace street, outside the orseman pub",FALSE,30,25,5,-6.264875829,53.34536358,0,0,2,,10.66,81,0,3,47,50,02-02-2020 16:00
"Cecilia street, outside temple lane recording studios",FALSE,30,7,23,-6.263965219,53.3450073,0,0,2,,10.66,81,8.9981,1,14,15,02-02-2020 17:00
"Cecilia street, outside luigi malones restaurant",TRUE,30,0,30,-6.263536066,53.3450113,0,0,1,,10.66,81,6.0032,0,5,5,02-02-2020 18:00
"Fleet Street, across from thunder road cafe",TRUE,20,20,0,-6.261535138,53.34571905,0,0,1,,9.84,87,6.0032,1,12,13,02-02-2020 19:00
Infirmary road,FALSE,33,31,2,-6.295009106,53.34846509,0,0,1,,9.84,87,8.9981,7,20,27,02-02-2020 20:00
Middle abbey street outside arnotts.,FALSE,40,31,9,-6.262722015,53.34809683,0,0,2,,9.84,87,8.9981,7,56,63,02-02-2020 21:00
Upper abbey street near the Jervia Luas stop.,FALSE,40,38,2,-6.264595538,53.34786626,0,0,2,,9.84,87,8.9981,11,133,144,02-02-2020 22:00
Talbot street across the road from Paddy Power,FALSE,20,18,2,-6.252361983,53.35108127,0,0,2,,10.66,93,16.9979,34,159,193,02-02-2020 23:00
"Camden street lower, outside tommy Moore jewellers",TRUE,40,28,12,-6.265102476,53.33561404,0,1,2,1,20.5,72,11.0014,31,483,514,03-02-2020 00:00
Cavendish road outside the Ambassador theatre.,TRUE,40,0,40,-6.261722893,53.35282476,0,1,2,1,20.5,72,11.0014,30,330,360,03-02-2020 01:00
Beresford Place Infront of Busaras.,TRUE,20,18,2,-6.252375394,53.34952263,0,1,2,1,19.68,77,8.9981,16,209,225,03-02-2020 02:00
"Burgh quay, outside Jaffa deli",TRUE,40,37,3,-6.257043779,53.34728023,0,1,2,1,19.68,77,6.0032,7,155,162,03-02-2020 03:00
"Hawkins street, outside PCI college",FALSE,16,8,8,-6.257368326,53.34717936,0,1,2,1,19.68,77,6.0032,8,76,84,03-02-2020 04:00
"Westmoreland street, outside fexco",TRUE,38,8,30,-6.259280741,53.34530433,0,1,2,1,18.86,88,6.0032,0,33,33,03-02-2020 05:00
"College green, outside dubarry of Ireland shop",FALSE,30,0,0,-6.25984937,53.34428192,0,1,2,1,18.86,88,0,2,6,8,03-02-2020 06:00
Mabbot lane,TRUE,16,14,2,-6.254621744,53.35223079,0,1,2,1,18.86,88,0,2,6,8,03-02-2020 07:00
,FALSE,25,0,25,-6.263420731,53.33592875,0,1,2,1,18.86,88,0,0,6,6,03-02-2020 08:00
,FALSE,20,17,3,-6.265754253,53.33960508,0,1,2,1,18.86,88,7.0015,0,6,6,03-02-2020 09:00
,TRUE,40,9,31,-6.261592805,53.34363419,0,1,2,1,18.86,88,6.0032,2,38,40,03-02-2020 10:00
Parnell Street outside Centra,FALSE,29,1,28,-6.263879389,53.35145831,0,1,2,1,18.86,88,6.0032,3,172,175,03-02-2020 11:00
,TRUE,35,0,35,-6.265408248,53.34110643,0,1,1,1,18.86,82,7.0015,9,498,507,03-02-2020 12:00
,TRUE,40,22,18,-6.265803874,53.34514581,0,1,1,1,20.5,77,11.0014,33,806,839,03-02-2020 13:00
,TRUE,23,23,0,-6.265716702,53.34523708,0,1,1,1,22.14,60,19.0012,35,331,366,03-02-2020 14:00
,FALSE,30,0,30,-6.26422137,53.34497847,0,1,1,1,22.96,52,19.9995,27,190,217,03-02-2020 15:00
,TRUE,40,40,0,-6.251496971,53.33775535,0,1,1,1,22.14,52,12.998,53,238,291,03-02-2020 16:00
,FALSE,23,23,0,-6.266094893,53.35038881,0,1,1,1,22.14,56,15.0013,78,312,390,03-02-2020 17:00
,FALSE,40,22,18,-6.280289143,53.3472354,0,1,1,1,22.96,49,0,60,237,297,03-02-2020 18:00
,FALSE,20,20,0,-6.250061989,53.33728289,0,1,1,1,24.6,40,11.0014,63,208,271,03-02-2020 19:00
,FALSE,20,2,17,-6.247862577,53.33837834,0,1,1,1,24.6,40,11.0014,58,261,319,03-02-2020 20:00
,TRUE,21,20,1,-6.252391487,53.33794353,0,1,1,1,24.6,40,15.0013,92,474,566,03-02-2020 21:00
,TRUE,29,29,0,-6.253306121,53.3381221,0,1,1,1,23.78,43,15.0013,91,857,948,03-02-2020 22:00
,FALSE,40,35,5,-6.261253506,53.33945615,0,1,2,1,22.96,49,11.0014,57,787,844,03-02-2020 23:00
